Packet Number,SIV,FixType,Latitude,Longitude,Altitude,Year,Month,Day,Hour,Min,Sec,NNV,NEV,NDV,Battery,3v3 Supply,5v Supply,Radio Supply,Analog Internal,Analog External,Altimeter Temp,Digital Internal,Digital External,Pressure,Accel A,Accel Y,Accel Z,Pitch,Roll,Yaw
0,0,0,0,0,0,2020,8,2,0,1,43,0,0,0,4.66,3.81,5.00,5.00,12.76,4.74,26.17,30.73,25.93,987.85,2.22,-7.00,5.89,13.63,-48.04,-134.73
Packet Number,SIV,FixType,Latitude,Longitude,Altitude,Year,Month,Day,Hour,Min,Sec,NNV,NEV,NDV,Battery,3v3 Supply,5v Supply,Radio Supply,Analog Internal,Analog External,Altimeter Temp,Digital Internal,Digital External,Pressure,Accel A,Accel Y,Accel Z,Pitch,Roll,Yaw
0,0,0,0,0,0,2020,8,2,0,0,2,0,0,0,4.66,3.81,5.00,5.00,12.71,4.47,26.22,30.77,25.95,987.88,0.00,-9.22,4.17,0.00,-65.66,-123.27
1,0,0,0,0,0,2020,8,2,0,0,3,0,0,0,4.65,3.80,5.00,5.00,13.35,5.23,26.21,30.77,25.95,987.66,0.00,-8.95,4.44,0.00,-63.63,-121.42
2,0,0,0,0,0,2020,8,2,0,0,4,0,0,0,4.65,3.81,5.00,5.00,12.81,4.64,26.25,30.77,25.99,987.91,-0.08,-9.10,4.05,-0.44,-65.99,-121.47
3,0,0,0,0,0,2020,8,2,0,0,5,0,0,0,4.65,3.80,5.00,5.00,13.29,5.41,26.25,30.77,25.98,987.79,-0.08,-9.18,4.05,-0.44,-66.17,-121.87
4,0,0,0,0,0,2020,8,2,0,0,6,0,0,0,4.64,3.81,5.00,5.00,12.55,4.72,26.27,30.78,26.01,987.66,0.15,-9.18,4.09,0.87,-65.96,-123.24
5,0,0,0,0,0,2020,8,2,0,0,7,0,0,0,4.65,3.79,5.00,5.00,13.43,5.46,26.29,30.82,26.00,987.83,-0.23,-9.26,3.79,-1.31,-67.71,-121.07
6,0,0,0,0,0,2020,8,2,0,0,8,0,0,0,4.66,3.81,5.00,5.00,12.79,4.78,26.29,30.80,26.02,987.78,0.31,-9.48,3.25,1.75,-71.00,-125.60
7,0,0,0,0,0,2020,8,2,0,0,9,0,0,0,4.65,3.79,5.00,5.00,13.51,5.48,26.31,30.84,26.03,987.97,0.50,-9.52,3.06,2.85,-71.97,-128.53
8,0,0,0,0,0,2020,8,2,0,0,10,0,0,0,4.65,3.81,5.00,5.00,12.63,4.74,26.31,30.77,26.05,987.89,0.69,-9.52,3.40,3.89,-69.96,-128.91
9,0,0,0,0,0,2020,8,2,0,0,11,0,0,0,4.65,3.80,5.00,5.00,12.50,4.54,26.30,30.79,26.04,987.91,0.46,-9.18,3.98,2.63,-66.43,-126.26
10,0,0,0,0,0,2020,8,2,0,0,12,0,0,0,4.65,3.81,5.00,5.00,12.74,4.83,26.30,30.77,26.04,987.87,0.50,-8.87,4.67,2.84,-62.13,-125.74
11,0,0,0,0,0,2020,8,2,0,0,13,0,0,0,4.65,3.80,5.00,5.00,11.49,5.38,26.31,30.85,26.05,987.87,0.42,-9.03,4.36,2.40,-64.11,-125.89
12,0,0,0,0,0,2020,8,2,0,0,14,0,0,0,4.60,3.81,5.00,5.00,12.73,4.85,26.32,30.88,26.08,987.86,0.46,-8.99,4.25,2.64,-64.59,-126.95
13,0,0,0,0,0,2020,8,2,0,0,15,0,0,0,4.65,3.79,5.00,5.00,13.55,4.52,26.34,30.85,26.06,987.86,0.57,-9.06,4.28,3.28,-64.51,-127.69
14,0,0,0,0,0,2020,8,2,0,0,16,0,0,0,4.62,3.81,5.00,5.00,12.73,4.82,26.35,30.84,26.09,987.91,0.57,-8.99,4.47,3.27,-63.35,-126.42
15,0,0,0,0,0,2020,8,2,0,0,17,0,0,0,4.65,3.79,5.00,5.00,13.61,3.53,26.34,30.84,26.09,987.85,0.61,-9.14,4.28,3.47,-64.67,-128.39
16,0,0,0,0,0,2020,8,2,0,0,18,0,0,0,4.65,3.81,5.00,5.00,12.83,4.77,26.38,30.85,26.11,987.85,0.46,-8.95,4.32,2.64,-64.10,-126.39
17,0,0,0,0,0,2020,8,2,0,0,19,0,0,0,4.65,3.80,5.00,5.00,13.61,5.65,26.37,30.86,26.11,987.88,0.38,-8.95,4.47,2.19,-63.35,-126.43
18,0,0,0,0,0,2020,8,2,0,0,20,0,0,0,4.63,3.81,5.00,5.00,12.91,4.91,26.38,30.88,26.11,987.97,0.69,-8.95,4.44,3.94,-63.36,-127.71
19,0,0,0,0,0,2020,8,2,0,0,21,0,0,0,4.65,3.79,5.00,5.00,13.30,5.84,26.38,30.90,26.13,987.80,0.92,-8.80,4.67,5.27,-61.60,-129.27
20,0,0,0,0,0,2020,8,2,0,0,22,0,0,0,4.66,3.81,5.00,5.00,12.98,5.09,26.40,30.90,26.11,987.85,1.15,-8.22,5.70,6.54,-54.74,-128.94
21,0,0,0,0,0,2020,8,2,0,0,23,0,0,0,4.64,3.80,5.00,5.00,13.73,5.57,26.40,30.90,26.16,987.99,0.31,-7.42,6.39,1.79,-49.24,-122.79
22,0,0,0,0,0,2020,8,2,0,0,24,0,0,0,4.66,3.81,5.00,5.00,12.43,4.81,26.44,30.97,26.13,987.96,0.34,-7.46,6.58,1.98,-48.55,-122.85
23,0,0,0,0,0,2020,8,2,0,0,25,0,0,0,4.64,3.80,5.00,5.00,13.66,5.55,26.41,30.91,26.16,987.90,0.00,-7.42,6.39,0.00,-49.28,-121.30
24,0,0,0,0,0,2020,8,2,0,0,26,0,0,0,4.65,3.81,5.00,5.00,13.22,5.22,26.44,30.95,26.16,987.72,0.23,-7.27,6.50,1.35,-48.16,-123.02
25,0,0,0,0,0,2020,8,2,0,0,27,0,0,0,4.64,3.80,5.00,5.00,13.99,5.72,26.46,30.95,26.18,987.90,0.15,-7.34,6.39,0.90,-48.98,-122.83
26,0,0,0,0,0,2020,8,2,0,0,28,0,0,0,4.66,3.81,5.00,5.00,13.08,4.99,26.48,30.98,26.19,987.89,0.19,-7.53,6.20,1.12,-50.55,-123.74
27,0,0,0,0,0,2020,8,2,0,0,29,0,0,0,4.65,3.79,5.00,5.00,13.45,5.77,26.49,31.04,26.19,987.83,0.54,-7.38,6.62,3.09,-48.03,-124.73
28,0,0,0,0,0,2020,8,2,0,0,30,0,0,0,4.66,3.81,5.00,5.00,11.48,5.00,26.50,31.01,26.23,987.85,0.73,-7.76,5.97,4.24,-52.25,-128.23
29,0,0,0,0,0,2020,8,2,0,0,31,0,0,0,4.65,3.79,5.00,5.00,13.75,5.70,26.52,31.05,26.21,987.90,0.50,-7.42,6.54,2.88,-48.52,-124.22
30,0,0,0,0,0,2020,8,2,0,0,32,0,0,0,4.65,3.81,5.00,5.00,10.79,5.50,26.52,31.04,26.20,987.88,0.54,-7.30,6.65,3.10,-47.57,-125.26
31,0,0,0,0,0,2020,8,2,0,0,33,0,0,0,4.62,3.80,5.00,5.00,13.69,5.78,26.53,31.05,26.23,987.69,0.65,-7.46,6.77,3.69,-47.64,-124.38
32,0,0,0,0,0,2020,8,2,0,0,34,0,0,0,4.66,3.81,5.00,5.00,13.07,2.75,26.55,31.05,26.23,987.97,0.34,-7.50,6.43,2.00,-49.36,-123.94
33,0,0,0,0,0,2020,8,2,0,0,35,0,0,0,4.64,3.79,5.00,5.00,13.83,5.94,26.55,31.05,26.25,987.97,0.57,-7.65,6.00,3.38,-51.74,-126.46
34,0,0,0,0,0,2020,8,2,0,0,36,0,0,0,4.65,3.81,5.00,5.00,12.06,3.98,26.55,31.07,26.27,987.83,0.54,-7.46,6.46,3.11,-48.99,-124.22
35,0,0,0,0,0,2020,8,2,0,0,37,0,0,0,4.59,3.79,5.00,5.00,13.79,5.68,26.58,31.11,26.30,987.80,0.54,-7.42,6.69,3.07,-47.86,-124.05
36,0,0,0,0,0,2020,8,2,0,0,38,0,0,0,4.66,3.81,5.00,5.00,13.30,4.87,26.58,31.14,26.27,987.93,0.38,-7.53,6.31,2.23,-50.00,-124.94
37,0,0,0,0,0,2020,8,2,0,0,39,0,0,0,4.58,3.79,5.00,5.00,13.86,5.92,26.59,31.15,26.25,987.81,0.50,-7.57,6.39,2.87,-49.77,-124.72
38,0,0,0,0,0,2020,8,2,0,0,40,0,0,0,4.66,3.81,5.00,5.00,13.20,4.60,26.60,31.14,26.29,987.89,0.46,-7.38,6.54,2.66,-48.39,-123.16
39,0,0,0,0,0,2020,8,2,0,0,41,0,0,0,4.65,3.79,5.00,5.00,13.79,5.50,26.58,31.16,26.29,987.83,0.23,-7.53,6.31,1.34,-50.03,-123.14
40,0,0,0,0,0,2020,8,2,0,0,42,0,0,0,4.64,3.81,5.00,5.00,13.25,5.10,26.59,31.15,26.30,987.86,0.46,-7.46,6.27,2.70,-49.86,-124.89
41,0,0,0,0,0,2020,8,2,0,0,43,0,0,0,4.65,3.80,5.00,5.00,14.02,5.78,26.60,31.18,26.29,987.76,0.50,-7.65,6.16,2.90,-51.07,-125.09
42,0,0,0,0,0,2020,8,2,0,0,44,0,0,0,4.66,3.81,5.00,5.00,13.18,5.19,26.59,31.17,26.31,987.96,0.31,-7.69,6.16,1.78,-51.27,-124.05
43,0,0,0,0,0,2020,8,2,0,0,45,0,0,0,4.65,3.79,5.00,5.00,13.89,5.94,26.61,31.19,26.34,987.73,0.69,-7.42,6.54,3.98,-48.45,-123.89
44,0,0,0,0,0,2020,8,2,0,0,46,0,0,0,4.61,3.81,5.00,5.00,13.37,5.10,26.63,31.22,26.34,987.98,0.34,-7.50,6.39,2.00,-49.53,-123.83
45,0,0,0,0,0,2020,8,2,0,0,47,0,0,0,4.65,3.80,5.00,5.00,14.03,6.12,26.65,31.26,26.31,987.91,0.42,-7.76,6.08,2.44,-51.86,-125.44
46,0,0,0,0,0,2020,8,2,0,0,48,0,0,0,4.66,3.81,5.00,5.00,13.38,5.30,26.64,31.26,26.37,987.92,0.38,-7.50,6.35,2.23,-49.69,-124.35
47,0,0,0,0,0,2020,8,2,0,0,49,0,0,0,4.65,3.79,5.00,5.00,13.93,6.00,26.66,31.29,26.35,987.84,0.42,-7.38,6.81,2.40,-47.26,-122.85
48,0,0,0,0,0,2020,8,2,0,0,50,0,0,0,4.62,3.81,5.00,5.00,13.37,5.41,26.67,31.27,26.41,987.97,0.65,-7.50,6.27,3.81,-49.93,-125.38
49,0,0,0,0,0,2020,8,2,0,0,51,0,0,0,4.65,3.80,5.00,5.00,13.95,5.95,26.68,31.30,26.40,987.81,0.65,-7.42,6.27,3.83,-49.64,-125.62
50,0,0,0,0,0,2020,8,2,0,0,52,0,0,0,4.63,3.80,5.00,5.00,13.50,5.51,26.69,31.28,26.40,987.98,0.54,-7.50,6.27,3.14,-49.98,-125.28
51,0,0,0,0,0,2020,8,2,0,0,53,0,0,0,4.65,3.80,5.00,5.00,11.97,6.03,26.69,31.27,26.41,987.76,0.57,-7.42,6.31,3.37,-49.50,-124.76
52,0,0,0,0,0,2020,8,2,0,0,54,0,0,0,4.66,3.81,5.00,5.00,13.33,5.41,26.70,31.30,26.38,987.83,0.65,-7.65,6.20,3.78,-50.84,-125.51
53,0,0,0,0,0,2020,8,2,0,0,55,0,0,0,4.65,3.79,5.00,5.00,11.50,6.14,26.73,31.35,26.45,987.90,0.54,-7.50,6.39,3.11,-49.47,-124.03
54,0,0,0,0,0,2020,8,2,0,0,56,0,0,0,4.59,3.81,5.00,5.00,13.55,5.37,26.72,31.38,26.43,987.85,0.46,-7.65,6.12,2.68,-51.26,-125.57
55,0,0,0,0,0,2020,8,2,0,0,57,0,0,0,4.64,3.79,5.00,5.00,14.17,5.27,26.74,31.41,26.46,987.87,0.42,-7.69,6.39,2.41,-50.22,-124.58
56,0,0,0,0,0,2020,8,2,0,0,58,0,0,0,4.62,3.81,5.00,5.00,13.40,5.24,26.74,31.41,26.49,987.98,0.46,-7.65,6.16,2.68,-51.09,-125.05
57,0,0,0,0,0,2020,8,2,0,0,59,0,0,0,4.65,3.79,5.00,5.00,14.27,3.77,26.72,31.41,26.45,987.84,0.65,-7.46,6.27,3.82,-49.78,-124.38
58,0,0,0,0,0,2020,8,2,0,1,0,0,0,0,4.63,3.81,5.00,5.00,13.43,5.40,26.72,31.39,26.46,987.91,0.38,-7.50,6.12,2.26,-50.72,-124.09
59,0,0,0,0,0,2020,8,2,0,1,1,0,0,0,4.65,3.80,5.00,5.00,14.30,5.95,26.73,31.38,26.45,987.95,0.42,-7.50,6.46,2.43,-49.17,-123.18
60,0,0,0,0,0,2020,8,2,0,1,2,0,0,0,4.62,3.81,5.00,5.00,13.65,5.31,26.74,31.41,26.46,987.88,0.46,-7.57,6.46,2.64,-49.45,-123.83
61,0,0,0,0,0,2020,8,2,0,1,3,0,0,0,4.65,3.80,5.00,5.00,14.14,5.97,26.74,31.46,26.46,987.90,0.38,-7.57,6.39,2.21,-49.80,-124.06
62,0,0,0,0,0,2020,8,2,0,1,4,0,0,0,4.66,3.81,5.00,5.00,13.45,5.58,26.76,31.43,26.48,987.78,0.50,-7.46,6.35,2.91,-49.51,-123.92
63,0,0,0,0,0,2020,8,2,0,1,5,0,0,0,4.65,3.79,5.00,5.00,14.20,6.06,26.75,31.45,26.48,987.96,0.46,-7.50,6.43,2.66,-49.33,-123.19
64,0,0,0,0,0,2020,8,2,0,1,6,0,0,0,4.68,3.81,5.00,5.00,13.65,5.45,26.75,31.48,26.48,987.74,0.46,-7.50,6.39,2.67,-49.49,-124.00
65,0,0,0,0,0,2020,8,2,0,1,7,0,0,0,4.65,3.79,5.00,5.00,14.37,6.11,26.77,31.51,26.49,987.94,0.42,-7.42,6.58,2.43,-48.38,-123.68
66,0,0,0,0,0,2020,8,2,0,1,8,0,0,0,4.64,3.81,5.00,5.00,13.68,5.52,26.76,31.50,26.52,987.79,0.46,-6.92,6.62,2.74,-46.23,-123.12
67,0,0,0,0,0,2020,8,2,0,1,9,0,0,0,4.65,3.79,5.00,5.00,14.30,6.09,26.79,31.49,26.49,987.97,1.38,-5.24,7.23,8.77,-35.45,-128.49
68,0,0,0,0,0,2020,8,2,0,1,10,0,0,0,4.65,3.81,5.00,5.00,13.90,5.42,26.80,31.52,26.51,987.82,0.46,-7.11,5.66,2.89,-51.40,-124.29
69,0,0,0,0,0,2020,8,2,0,1,11,0,0,0,4.64,3.79,5.00,5.00,14.27,6.23,26.79,31.50,26.50,987.47,0.19,-3.56,2.18,2.62,-58.40,-99.63
70,0,0,0,0,0,2020,8,2,0,1,12,0,0,0,4.64,3.81,5.00,5.00,12.70,5.44,26.77,31.52,26.54,987.63,-6.96,-5.89,4.21,-43.88,-35.91,-63.40
71,0,0,0,0,0,2020,8,2,0,1,13,0,0,0,4.64,3.79,5.00,5.00,14.46,6.08,26.78,31.52,26.53,987.64,-6.81,-5.89,4.36,-42.89,-36.08,-64.27
72,0,0,0,0,0,2020,8,2,0,1,14,0,0,0,4.67,3.81,5.00,5.00,12.27,5.52,26.81,31.52,26.53,987.63,-6.69,-5.89,4.47,-42.14,-36.19,-64.86
73,0,0,0,0,0,2020,8,2,0,1,15,0,0,0,4.62,3.79,5.00,5.00,14.33,6.28,26.82,31.49,26.54,987.85,-5.32,-1.80,8.38,-31.82,-10.27,-82.64
74,0,0,0,0,0,2020,8,2,0,1,16,0,0,0,4.64,3.81,5.00,5.00,13.54,3.56,26.80,31.44,26.52,987.70,-3.52,-3.40,8.64,-20.75,-20.04,-91.27
75,0,0,0,0,0,2020,8,2,0,1,17,0,0,0,4.63,3.79,5.00,5.00,14.37,6.11,26.78,31.45,26.55,987.64,-6.12,-4.78,7.80,-33.77,-25.74,-73.48
76,0,0,0,0,0,2020,8,2,0,1,18,0,0,0,4.64,3.80,5.00,5.00,12.12,3.89,26.79,31.44,26.54,987.67,-4.55,-3.40,8.03,-27.55,-20.24,-83.93
77,0,0,0,0,0,2020,8,2,0,1,19,0,0,0,4.61,3.80,5.00,5.00,14.46,6.16,26.79,31.47,26.52,987.74,-4.55,-3.67,7.65,-28.21,-22.42,-79.32
78,0,0,0,0,0,2020,8,2,0,1,20,0,0,0,4.65,3.81,5.00,5.00,13.93,5.45,26.82,31.50,26.57,987.58,-4.63,-3.67,7.84,-28.13,-21.96,-80.54
79,0,0,0,0,0,2020,8,2,0,1,21,0,0,0,4.59,3.79,5.00,5.00,14.51,6.09,26.82,31.46,26.57,987.69,-4.70,-3.71,7.53,-29.26,-22.67,-79.16
80,0,0,0,0,0,2020,8,2,0,1,22,0,0,0,4.66,3.81,5.00,5.00,13.94,5.51,26.83,31.48,26.55,987.57,-4.90,-3.48,7.57,-30.43,-21.10,-77.27
81,0,0,0,0,0,2020,8,2,0,1,23,0,0,0,4.65,3.79,5.00,5.00,14.40,6.22,26.83,31.49,26.59,987.74,-4.78,-3.67,7.92,-28.71,-21.65,-78.65
82,0,0,0,0,0,2020,8,2,0,1,24,0,0,0,4.67,3.81,5.00,5.00,13.97,5.31,26.85,31.47,26.63,987.74,-4.82,-4.25,7.42,-29.41,-25.63,-75.42
83,0,0,0,0,0,2020,8,2,0,1,25,0,0,0,4.65,3.80,5.00,5.00,14.53,5.97,26.85,31.49,26.60,987.77,-4.93,-4.02,7.23,-30.82,-24.65,-74.75
84,0,0,0,0,0,2020,8,2,0,1,26,0,0,0,4.67,3.81,5.00,5.00,13.89,5.50,26.85,31.50,26.59,987.80,-4.90,-3.90,7.46,-30.18,-23.62,-75.87
85,0,0,0,0,0,2020,8,2,0,1,27,0,0,0,4.64,3.79,5.00,5.00,14.59,6.22,26.86,31.54,26.56,987.77,-4.90,-3.86,7.46,-30.24,-23.41,-77.09
86,0,0,0,0,0,2020,8,2,0,1,28,0,0,0,4.66,3.81,5.00,5.00,14.08,5.55,26.87,31.52,26.60,987.82,-4.74,-3.86,7.50,-29.35,-23.53,-75.76
87,0,0,0,0,0,2020,8,2,0,1,29,0,0,0,4.65,3.79,5.00,5.00,14.63,6.23,26.86,31.48,26.59,987.75,-4.97,-3.79,7.42,-30.83,-22.97,-75.33
88,0,0,0,0,0,2020,8,2,0,1,30,0,0,0,4.65,3.81,5.00,5.00,13.86,5.59,26.88,31.49,26.59,987.68,-4.97,-3.79,8.18,-28.87,-21.57,-79.33
89,0,0,0,0,0,2020,8,2,0,1,31,0,0,0,4.64,3.80,5.00,5.00,14.65,6.25,26.88,31.50,26.59,987.76,-5.05,-3.75,7.57,-30.86,-22.38,-75.74
90,0,0,0,0,0,2020,8,2,0,1,32,0,0,0,4.66,3.81,5.00,5.00,14.00,5.49,26.88,31.46,26.61,987.53,-4.63,-3.86,7.69,-28.28,-23.29,-79.47
91,0,0,0,0,0,2020,8,2,0,1,33,0,0,0,4.64,3.79,5.00,5.00,14.73,6.41,26.87,31.53,26.64,987.81,-4.82,-3.82,7.76,-29.11,-22.71,-77.67
92,0,0,0,0,0,2020,8,2,0,1,34,0,0,0,4.64,3.81,5.00,5.00,14.45,5.24,26.91,31.50,26.66,987.87,-4.63,-3.82,8.15,-27.21,-22.21,-79.84
93,0,0,0,0,0,2020,8,2,0,1,35,0,0,0,4.65,3.79,5.00,5.00,13.01,6.30,26.90,31.50,26.63,987.66,-4.86,-3.79,7.96,-28.87,-22.11,-78.50
94,0,0,0,0,0,2020,8,2,0,1,36,0,0,0,4.65,3.81,5.00,5.00,14.14,5.60,26.89,31.48,26.63,987.71,-4.67,-3.90,7.57,-28.71,-23.68,-78.53
95,0,0,0,0,0,2020,8,2,0,1,37,0,0,0,4.65,3.80,5.00,5.00,12.04,5.93,26.90,31.52,26.63,987.83,-4.55,-3.67,7.69,-28.11,-22.34,-81.39
96,0,0,0,0,0,2020,8,2,0,1,38,0,0,0,4.59,3.81,5.00,5.00,14.28,5.52,26.89,31.46,26.63,987.53,-4.51,-3.79,7.73,-27.68,-22.94,-79.89
97,0,0,0,0,0,2020,8,2,0,1,39,0,0,0,4.65,3.79,5.00,5.00,14.83,5.62,26.90,31.46,26.64,987.63,-4.51,-3.86,7.57,-27.96,-23.66,-78.42
98,0,0,0,0,0,2020,8,2,0,1,40,0,0,0,4.63,3.81,5.00,5.00,14.20,5.76,26.90,31.48,26.65,987.56,-4.47,-3.63,7.96,-27.10,-21.71,-81.21
99,0,0,0,0,0,2020,8,2,0,1,41,0,0,0,4.64,3.80,5.00,5.00,14.84,4.97,26.90,31.51,26.65,987.71,-4.63,-3.71,7.80,-28.18,-22.24,-80.22
100,0,0,0,0,0,2020,8,2,0,1,42,0,0,0,4.61,3.81,5.00,5.00,14.11,5.39,26.91,31.48,26.66,987.63,-4.47,-3.63,7.99,-27.00,-21.63,-82.45
101,0,0,0,0,0,2020,8,2,0,1,43,0,0,0,4.65,3.79,5.00,5.00,14.64,6.03,26.92,31.48,26.66,987.69,-4.40,-3.75,7.76,-27.03,-22.78,-81.72
102,0,0,0,0,0,2020,8,2,0,1,44,0,0,0,4.61,3.81,5.00,5.00,14.43,5.61,26.92,31.51,26.66,987.59,-4.36,-3.63,7.99,-26.41,-21.75,-83.04
103,0,0,0,0,0,2020,8,2,0,1,45,0,0,0,4.64,3.79,5.00,5.00,15.06,6.30,26.91,31.52,26.69,987.56,-4.51,-3.75,7.80,-27.54,-22.58,-81.34
104,0,0,0,0,0,2020,8,2,0,1,46,0,0,0,4.65,3.81,5.00,5.00,14.28,5.83,26.92,31.53,26.65,987.70,-4.82,-3.71,7.76,-29.25,-22.10,-80.89
105,0,0,0,0,0,2020,8,2,0,1,47,0,0,0,4.64,3.80,5.00,5.00,14.98,6.22,26.91,31.49,26.69,987.67,-4.32,-3.71,7.69,-26.85,-22.81,-82.66
106,0,0,0,0,0,2020,8,2,0,1,48,0,0,0,4.65,3.81,5.00,5.00,14.32,5.40,26.91,31.51,26.67,987.73,-4.36,-3.67,7.84,-26.73,-22.26,-84.01
107,0,0,0,0,0,2020,8,2,0,1,49,0,0,0,4.64,3.79,5.00,5.00,14.98,6.44,26.91,31.49,26.66,987.57,-4.44,-3.63,7.73,-27.46,-22.19,-81.10
108,0,0,0,0,0,2020,8,2,0,1,50,0,0,0,4.64,3.80,5.00,5.00,14.42,5.44,26.92,31.51,26.66,987.68,-4.78,-3.71,7.57,-29.55,-22.50,-78.06
109,0,0,0,0,0,2020,8,2,0,1,51,0,0,0,4.64,3.79,5.00,5.00,14.83,6.36,26.92,31.52,26.70,987.68,-4.59,-3.71,7.69,-28.27,-22.51,-80.45
110,0,0,0,0,0,2020,8,2,0,1,52,0,0,0,4.65,3.81,5.00,5.00,14.38,5.72,26.93,31.52,26.67,987.63,-4.74,-3.63,7.84,-28.76,-21.63,-80.18
111,0,0,0,0,0,2020,8,2,0,1,53,0,0,0,4.65,3.79,5.00,5.00,14.89,6.61,26.93,31.54,26.70,987.60,-4.67,-3.52,7.88,-28.40,-21.02,-81.38
112,0,0,0,0,0,2020,8,2,0,1,54,0,0,0,4.63,3.80,5.00,5.00,13.52,5.24,26.94,31.55,26.72,987.61,-4.51,-3.52,7.84,-27.71,-21.25,-81.73
113,0,0,0,0,0,2020,8,2,0,1,55,0,0,0,4.64,3.79,5.00,5.00,15.05,6.29,26.92,31.54,26.67,987.59,-4.47,-3.67,7.92,-27.15,-21.99,-81.19
114,0,0,0,0,0,2020,8,2,0,1,56,0,0,0,4.65,3.81,5.00,5.00,13.06,5.62,26.95,31.55,26.66,987.81,-4.63,-3.67,7.80,-28.22,-22.04,-79.88
115,0,0,0,0,0,2020,8,2,0,1,57,0,0,0,4.61,3.80,5.00,5.00,15.25,6.32,26.95,31.56,26.69,987.65,-4.51,-3.75,7.96,-27.17,-22.28,-80.61
116,0,0,0,0,0,2020,8,2,0,1,58,0,0,0,4.65,3.81,5.00,5.00,14.58,4.08,26.96,31.54,26.70,987.54,-4.63,-3.63,7.76,-28.36,-21.90,-81.11
117,0,0,0,0,0,2020,8,2,0,1,59,0,0,0,4.64,3.80,5.00,5.00,15.42,6.33,26.96,31.58,26.70,987.50,-4.40,-3.60,7.96,-26.74,-21.58,-83.08
118,0,0,0,0,0,2020,8,2,0,2,0,0,0,0,4.66,3.80,5.00,5.00,13.08,3.98,26.97,31.56,26.71,987.62,-4.70,-3.63,7.96,-28.28,-21.46,-81.80
119,0,0,0,0,0,2020,8,2,0,2,1,0,0,0,4.61,3.79,5.00,5.00,15.10,6.59,26.98,31.56,26.72,987.66,-4.47,-3.60,7.99,-27.05,-21.43,-83.20
120,0,0,0,0,0,2020,8,2,0,2,2,0,0,0,4.64,3.81,5.00,5.00,14.60,5.74,26.97,31.55,26.73,987.65,-4.51,-3.79,7.84,-27.40,-22.71,-82.66
121,0,0,0,0,0,2020,8,2,0,2,3,0,0,0,4.58,3.79,5.00,5.00,15.19,6.21,26.96,31.58,26.71,987.76,-4.55,-3.67,7.80,-27.83,-22.12,-81.19
122,0,0,0,0,0,2020,8,2,0,2,4,0,0,0,4.65,3.81,5.00,5.00,14.53,4.43,26.96,31.59,26.71,987.60,-4.59,-3.67,7.92,-27.74,-21.86,-80.82
123,0,0,0,0,0,2020,8,2,0,2,5,0,0,0,4.64,3.79,5.00,5.00,15.12,6.37,26.95,31.59,26.70,987.63,-4.55,-3.63,7.84,-27.77,-21.84,-81.71
124,0,0,0,0,0,2020,8,2,0,2,6,0,0,0,4.63,3.81,5.00,5.00,14.55,5.72,26.95,31.60,26.70,987.54,-4.21,-3.98,7.76,-25.75,-24.25,-81.76
125,0,0,0,0,0,2020,8,2,0,2,7,0,0,0,4.64,3.79,5.00,5.00,15.26,6.10,26.96,31.60,26.70,987.66,-4.55,-3.79,7.80,-27.69,-22.74,-81.10
126,0,0,0,0,0,2020,8,2,0,2,8,0,0,0,4.65,3.81,5.00,5.00,14.81,5.73,26.96,31.66,26.70,987.43,-4.44,-3.82,7.76,-27.14,-23.16,-80.54
127,0,0,0,0,0,2020,8,2,0,2,9,0,0,0,4.64,3.79,5.00,5.00,15.36,6.52,26.96,31.66,26.71,987.73,-4.44,-3.79,7.76,-27.19,-22.95,-81.28
128,0,0,0,0,0,2020,8,2,0,2,10,0,0,0,4.66,3.80,5.00,5.00,14.77,5.86,26.96,31.62,26.70,987.68,-4.59,-3.79,7.80,-27.89,-22.70,-80.63
129,0,0,0,0,0,2020,8,2,0,2,11,0,0,0,4.65,3.80,5.00,5.00,15.31,6.50,26.97,31.68,26.70,987.67,-4.55,-3.86,7.57,-28.16,-23.62,-78.77
130,0,0,0,0,0,2020,8,2,0,2,12,0,0,0,4.65,3.80,5.00,5.00,14.55,5.59,26.97,31.66,26.73,987.52,-4.59,-3.71,7.76,-28.07,-22.36,-81.13
131,0,0,0,0,0,2020,8,2,0,2,13,0,0,0,4.64,3.79,5.00,5.00,14.70,6.34,26.96,31.63,26.74,987.56,-4.55,-3.75,7.80,-27.74,-22.54,-82.41
132,0,0,0,0,0,2020,8,2,0,2,14,0,0,0,4.63,3.81,5.00,5.00,14.79,5.52,26.98,31.63,26.73,987.71,-4.47,-3.79,7.69,-27.57,-23.06,-81.63
133,0,0,0,0,0,2020,8,2,0,2,15,0,0,0,4.65,3.79,5.00,5.00,15.50,6.40,26.97,31.65,26.73,987.68,-4.51,-3.79,7.65,-27.87,-23.09,-81.15
134,0,0,0,0,0,2020,8,2,0,2,16,0,0,0,4.65,3.81,5.00,5.00,14.78,5.76,26.96,31.64,26.75,987.62,-4.55,-3.75,7.92,-27.46,-22.32,-80.89
135,0,0,0,0,0,2020,8,2,0,2,17,0,0,0,4.64,3.79,5.00,5.00,13.29,6.38,26.98,31.70,26.73,987.61,-4.25,-3.79,7.88,-25.90,-22.93,-83.00
136,0,0,0,0,0,2020,8,2,0,2,18,0,0,0,4.65,3.80,5.00,5.00,14.91,5.79,27.01,31.69,26.76,987.58,-4.55,-3.71,7.80,-27.78,-22.33,-80.90
137,0,0,0,0,0,2020,8,2,0,2,19,0,0,0,4.64,3.79,5.00,5.00,12.92,6.40,27.01,31.69,26.75,987.80,-4.63,-3.79,7.73,-28.28,-22.80,-80.66
138,0,0,0,0,0,2020,8,2,0,2,20,0,0,0,4.59,3.80,5.00,5.00,14.69,5.73,27.01,31.72,26.75,987.72,-2.94,-2.94,7.34,-20.42,-20.42,-91.29
139,0,0,0,0,0,2020,8,2,0,2,21,0,0,0,4.64,3.80,5.00,5.00,15.29,4.90,27.01,31.73,26.75,987.77,-1.76,-3.33,8.64,-10.76,-20.67,-104.21
140,0,0,0,0,0,2020,8,2,0,2,22,0,0,0,4.64,3.81,5.00,5.00,14.71,5.76,26.99,31.70,26.73,987.93,-0.99,-3.71,8.91,-5.88,-22.48,-110.26
141,0,0,0,0,0,2020,8,2,0,2,23,0,0,0,4.64,3.79,5.00,5.00,15.01,4.48,26.98,31.69,26.75,987.66,-0.96,-3.86,9.10,-5.52,-22.88,-111.12
142,0,0,0,0,0,2020,8,2,0,2,24,0,0,0,4.63,3.81,5.00,5.00,15.03,5.80,27.00,31.71,26.75,987.81,-0.96,-3.75,8.68,-5.77,-23.23,-111.68
143,0,0,0,0,0,2020,8,2,0,2,25,0,0,0,4.64,3.79,5.00,5.00,15.37,6.50,27.01,31.70,26.77,987.90,-0.92,-3.94,8.76,-5.46,-24.10,-111.92
144,0,0,0,0,0,2020,8,2,0,2,26,0,0,0,4.61,3.81,5.00,5.00,14.84,6.08,27.02,31.73,26.77,987.85,-0.99,-3.79,8.91,-5.86,-22.89,-111.46
145,0,0,0,0,0,2020,8,2,0,2,27,0,0,0,4.65,3.79,5.00,5.00,15.53,6.52,27.02,31.70,26.78,987.64,-0.88,-3.75,8.95,-5.18,-22.63,-112.23
146,0,0,0,0,0,2020,8,2,0,2,28,0,0,0,4.65,3.80,5.00,5.00,14.67,5.87,27.02,31.73,26.80,987.80,-0.76,-3.98,8.49,-4.66,-25.01,-113.49
147,0,0,0,0,0,2020,8,2,0,2,29,0,0,0,4.65,3.79,5.00,5.00,15.48,6.50,27.04,31.72,26.78,987.70,-0.73,-4.02,8.80,-4.30,-24.46,-114.27
148,0,0,0,0,0,2020,8,2,0,2,30,0,0,0,4.65,3.81,5.00,5.00,14.88,5.80,27.04,31.73,26.78,987.93,-0.42,-4.09,8.72,-2.50,-25.11,-115.94
149,0,0,0,0,0,2020,8,2,0,2,31,0,0,0,4.64,3.79,5.00,5.00,15.58,6.12,27.03,31.75,26.80,987.88,-0.34,-4.13,8.72,-2.04,-25.33,-116.69
150,0,0,0,0,0,2020,8,2,0,2,32,0,0,0,4.65,3.80,5.00,5.00,14.70,5.89,27.05,31.76,26.80,987.66,-0.34,-4.17,8.68,-2.05,-25.63,-116.30
151,0,0,0,0,0,2020,8,2,0,2,33,0,0,0,4.65,3.79,5.00,5.00,15.52,6.79,27.06,31.74,26.81,987.93,-0.42,-3.98,8.76,-2.50,-24.40,-116.43
152,0,0,0,0,0,2020,8,2,0,2,34,0,0,0,4.65,3.81,5.00,5.00,14.70,6.44,27.06,31.76,26.82,987.76,-0.15,-4.17,8.61,-0.92,-25.84,-117.45
153,0,0,0,0,0,2020,8,2,0,2,35,0,0,0,4.65,3.79,5.00,5.00,15.92,6.54,27.05,31.80,26.83,987.60,-0.31,-4.28,8.72,-1.80,-26.15,-116.20
154,0,0,0,0,0,2020,8,2,0,2,36,0,0,0,4.65,3.81,5.00,5.00,13.83,5.81,27.06,31.77,26.84,987.69,-0.34,-4.09,8.87,-2.02,-24.74,-117.05
155,0,0,0,0,0,2020,8,2,0,2,37,0,0,0,4.64,3.79,5.00,5.00,15.52,6.47,27.06,31.80,26.83,987.74,-0.27,-4.09,8.68,-1.60,-25.23,-116.19
156,0,0,0,0,0,2020,8,2,0,2,38,0,0,0,4.65,3.81,5.00,5.00,13.50,6.00,27.07,31.79,26.83,987.79,-0.27,-4.13,8.72,-1.59,-25.34,-116.55
157,0,0,0,0,0,2020,8,2,0,2,39,0,0,0,4.64,3.79,5.00,5.00,15.50,6.53,27.08,31.78,26.84,987.71,-0.19,-4.13,8.72,-1.14,-25.34,-117.12
158,0,0,0,0,0,2020,8,2,0,2,40,0,0,0,4.65,3.80,5.00,5.00,13.66,4.85,27.08,31.80,26.83,987.81,-0.19,-4.17,8.83,-1.12,-25.26,-117.42
159,0,0,0,0,0,2020,8,2,0,2,41,0,0,0,4.64,3.79,5.00,5.00,15.76,6.45,27.09,31.80,26.84,987.86,-0.27,-4.55,8.26,-1.63,-28.84,-117.96
160,0,0,0,0,0,2020,8,2,0,2,42,0,0,0,4.64,3.81,5.00,5.00,12.87,3.85,27.11,31.80,26.84,987.86,-0.19,-4.40,8.68,-1.13,-26.86,-117.54
161,0,0,0,0,0,2020,8,2,0,2,43,0,0,0,4.61,3.79,5.00,5.00,15.70,6.44,27.11,31.84,26.86,987.73,-0.23,-4.28,8.72,-1.35,-26.15,-116.75
162,0,0,0,0,0,2020,8,2,0,2,44,0,0,0,4.66,3.80,5.00,5.00,14.89,6.00,27.12,31.81,26.85,987.79,0.15,-4.86,8.18,0.92,-30.68,-121.33
163,0,0,0,0,0,2020,8,2,0,2,45,0,0,0,4.58,3.79,5.00,5.00,15.59,6.50,27.13,31.84,26.86,987.81,0.15,-4.59,8.61,0.90,-28.07,-119.90
164,0,0,0,0,0,2020,8,2,0,2,46,0,0,0,4.66,3.81,5.00,5.00,15.07,4.54,27.14,31.84,26.87,987.86,0.23,-4.55,8.41,1.37,-28.40,-121.02
165,0,0,0,0,0,2020,8,2,0,2,47,0,0,0,4.64,3.79,5.00,5.00,15.51,6.40,27.13,31.80,26.85,987.85,0.15,-4.59,8.64,0.90,-27.96,-120.63
166,0,0,0,0,0,2020,8,2,0,2,48,0,0,0,4.66,3.81,5.00,5.00,14.86,6.27,27.13,31.82,26.86,987.84,0.15,-4.59,8.57,0.90,-28.17,-120.81
167,0,0,0,0,0,2020,8,2,0,2,49,0,0,0,4.65,3.80,5.00,5.00,15.81,6.48,27.16,31.83,26.88,987.83,0.23,-4.51,8.57,1.36,-27.77,-121.08
168,0,0,0,0,0,2020,8,2,0,2,50,0,0,0,4.66,3.80,5.00,5.00,14.73,5.72,27.14,31.86,26.86,987.93,0.27,-4.59,8.34,1.61,-28.82,-121.24
169,0,0,0,0,0,2020,8,2,0,2,51,0,0,0,4.64,3.79,5.00,5.00,15.75,6.64,27.15,31.84,26.88,987.72,0.08,-4.59,8.41,0.46,-28.61,-120.30
170,0,0,0,0,0,2020,8,2,0,2,52,0,0,0,4.65,3.81,5.00,5.00,14.75,5.94,27.16,31.85,26.86,987.88,0.11,-4.59,8.26,0.70,-29.05,-120.70
171,0,0,0,0,0,2020,8,2,0,2,53,0,0,0,4.64,3.79,5.00,5.00,15.61,6.68,27.17,31.86,26.90,987.78,0.11,-4.59,8.45,0.68,-28.50,-120.79
172,0,0,0,0,0,2020,8,2,0,2,54,0,0,0,4.64,3.81,5.00,5.00,14.91,6.05,27.20,31.92,26.89,988.09,0.11,-4.63,8.57,0.68,-28.37,-119.83
173,0,0,0,0,0,2020,8,2,0,2,55,0,0,0,4.64,3.79,5.00,5.00,15.41,6.71,27.22,31.91,26.88,987.94,0.11,-4.59,8.45,0.68,-28.50,-120.18
174,0,0,0,0,0,2020,8,2,0,2,56,0,0,0,4.65,3.81,5.00,5.00,15.12,5.52,27.20,31.90,26.90,987.88,0.15,-4.59,8.49,0.91,-28.39,-120.44
175,0,0,0,0,0,2020,8,2,0,2,57,0,0,0,4.64,3.79,5.00,5.00,15.60,6.43,27.21,31.95,26.92,987.73,0.11,-4.59,8.57,0.68,-28.18,-119.18
176,0,0,0,0,0,2020,8,2,0,2,58,0,0,0,4.66,3.81,5.00,5.00,15.05,6.12,27.20,31.94,26.90,987.87,0.08,-4.51,8.34,0.46,-28.42,-120.46
177,0,0,0,0,0,2020,8,2,0,2,59,0,0,0,4.64,3.79,5.00,5.00,13.30,6.71,27.20,31.91,26.94,987.92,0.15,-4.59,8.49,0.91,-28.39,-120.52
178,0,0,0,0,0,2020,8,2,0,3,0,0,0,0,4.66,3.81,5.00,5.00,15.42,5.80,27.21,31.91,26.93,987.81,0.11,-4.63,8.41,0.68,-28.81,-120.34
179,0,0,0,0,0,2020,8,2,0,3,1,0,0,0,4.64,3.79,5.00,5.00,12.29,6.69,27.22,31.94,26.91,987.82,0.15,-4.55,8.61,0.90,-27.87,-119.83
180,0,0,0,0,0,2020,8,2,0,3,2,0,0,0,4.59,3.80,5.00,5.00,15.57,6.00,27.24,31.94,26.96,987.86,0.19,-4.63,8.41,1.14,-28.80,-120.45
181,0,0,0,0,0,2020,8,2,0,3,3,0,0,0,4.64,3.79,5.00,5.00,15.64,5.70,27.22,31.98,26.95,987.77,0.08,-4.59,8.53,0.45,-28.28,-120.15
182,0,0,0,0,0,2020,8,2,0,3,4,0,0,0,4.64,3.81,5.00,5.00,15.30,6.14,27.23,31.97,26.96,987.68,0.15,-4.67,8.41,0.91,-29.01,-120.56
183,0,0,0,0,0,2020,8,2,0,3,5,0,0,0,4.65,3.79,5.00,5.00,15.60,4.58,27.24,32.02,26.95,987.88,0.23,-4.59,8.45,1.37,-28.49,-119.81
184,0,0,0,0,0,2020,8,2,0,3,6,0,0,0,4.65,3.81,5.00,5.00,15.62,6.19,27.26,32.00,26.99,987.86,0.23,-4.70,8.49,1.35,-28.98,-121.16
185,0,0,0,0,0,2020,8,2,0,3,7,0,0,0,4.65,3.79,5.00,5.00,16.02,6.55,27.26,31.97,26.98,987.82,0.23,-4.67,8.45,1.36,-28.89,-121.46
186,0,0,0,0,0,2020,8,2,0,3,8,0,0,0,4.60,3.80,5.00,5.00,15.28,6.29,27.28,32.03,26.97,987.84,0.08,-4.55,8.45,0.46,-28.30,-120.17
187,0,0,0,0,0,2020,8,2,0,3,9,0,0,0,4.65,3.79,5.00,5.00,15.64,6.69,27.28,32.00,26.98,987.75,0.19,-4.63,8.61,1.12,-28.26,-119.82
188,0,0,0,0,0,2020,8,2,0,3,10,0,0,0,4.65,3.81,5.00,5.00,15.40,6.33,27.28,31.98,26.99,987.88,0.15,-4.70,8.45,0.91,-29.09,-121.61
189,0,0,0,0,0,2020,8,2,0,3,11,0,0,0,4.65,3.79,5.00,5.00,16.04,6.78,27.28,32.01,27.04,987.85,0.23,-4.70,8.41,1.36,-29.20,-121.28
190,0,0,0,0,0,2020,8,2,0,3,12,0,0,0,4.65,3.81,5.00,5.00,15.32,6.32,27.29,32.02,26.98,987.73,0.19,-4.55,8.41,1.15,-28.40,-120.22
191,0,0,0,0,0,2020,8,2,0,3,13,0,0,0,4.64,3.79,5.00,5.00,15.77,6.89,27.29,32.01,27.00,988.00,0.27,-4.55,8.49,1.59,-28.18,-121.53
192,0,0,0,0,0,2020,8,2,0,3,14,0,0,0,4.64,3.81,5.00,5.00,15.03,5.79,27.28,32.06,26.97,987.80,0.27,-4.63,8.41,1.60,-28.80,-121.67
193,0,0,0,0,0,2020,8,2,0,3,15,0,0,0,4.64,3.79,5.00,5.00,15.97,6.79,27.29,32.02,26.98,987.67,0.31,-4.67,8.53,1.80,-28.67,-121.16
194,0,0,0,0,0,2020,8,2,0,3,16,0,0,0,4.65,3.80,5.00,5.00,15.27,6.39,27.32,32.05,27.03,987.98,0.23,-4.63,8.49,1.36,-28.58,-121.49
195,0,0,0,0,0,2020,8,2,0,3,17,0,0,0,4.64,3.80,5.00,5.00,15.96,6.78,27.32,32.05,27.02,987.82,0.11,-4.59,8.45,0.68,-28.50,-120.37
196,0,0,0,0,0,2020,8,2,0,3,18,0,0,0,4.65,3.80,5.00,5.00,12.79,6.18,27.32,32.06,27.03,987.97,0.31,-4.59,8.45,1.82,-28.49,-121.51
197,0,0,0,0,0,2020,8,2,0,3,19,0,0,0,4.64,3.79,5.00,5.00,15.86,6.90,27.33,32.06,27.02,987.83,0.23,-4.63,8.45,1.36,-28.69,-121.10
198,0,0,0,0,0,2020,8,2,0,3,20,0,0,0,4.65,3.80,5.00,5.00,15.26,6.23,27.33,32.06,27.04,987.74,-0.19,-4.55,8.26,-1.16,-28.85,-119.55
199,0,0,0,0,0,2020,8,2,0,3,21,0,0,0,4.63,3.79,5.00,5.00,16.06,6.88,27.34,32.07,27.03,987.70,0.57,-4.59,8.57,3.38,-28.13,-122.97
200,0,0,0,0,0,2020,8,2,0,3,22,0,0,0,4.65,3.81,5.00,5.00,14.07,5.33,27.34,32.07,27.05,987.78,0.23,-4.47,8.49,1.37,-27.78,-121.28
201,0,0,0,0,0,2020,8,2,0,3,23,0,0,0,4.64,3.79,5.00,5.00,15.87,6.92,27.34,32.10,27.04,987.92,0.38,-4.59,8.57,2.25,-28.15,-121.78
202,0,0,0,0,0,2020,8,2,0,3,24,0,0,0,4.66,3.81,5.00,5.00,13.55,5.27,27.34,32.13,27.05,987.77,0.42,-4.55,8.53,2.49,-28.06,-121.57
203,0,0,0,0,0,2020,8,2,0,3,25,0,0,0,4.59,3.79,5.00,5.00,15.80,6.97,27.36,32.13,27.08,987.78,0.34,-4.55,8.57,2.03,-27.96,-122.24
204,0,0,0,0,0,2020,8,2,0,3,26,0,0,0,4.65,3.80,5.00,5.00,15.38,6.28,27.38,32.11,27.07,987.86,0.34,-4.63,8.57,2.02,-28.36,-122.31
205,0,0,0,0,0,2020,8,2,0,3,27,0,0,0,4.59,3.79,5.00,5.00,15.93,6.89,27.38,32.13,27.09,987.64,0.15,-4.47,8.72,0.89,-27.16,-121.22
206,0,0,0,0,0,2020,8,2,0,3,28,0,0,0,4.65,3.80,5.00,5.00,15.28,4.59,27.38,32.13,27.09,987.90,0.42,-4.63,8.49,2.49,-28.56,-122.51
207,0,0,0,0,0,2020,8,2,0,3,29,0,0,0,4.64,3.79,5.00,5.00,15.79,6.93,27.38,32.15,27.11,987.82,0.46,-4.86,8.22,2.75,-30.53,-123.34
208,0,0,0,0,0,2020,8,2,0,3,30,0,0,0,4.65,3.81,5.00,5.00,15.27,6.42,27.36,32.19,27.08,987.70,0.38,-4.67,8.57,2.25,-28.55,-122.06
209,0,0,0,0,0,2020,8,2,0,3,31,0,0,0,4.63,3.79,5.00,5.00,15.86,6.96,27.39,32.20,27.09,988.00,0.46,-4.74,8.38,2.73,-29.48,-122.46
210,0,0,0,0,0,2020,8,2,0,3,32,0,0,0,4.65,3.81,5.00,5.00,15.54,6.38,27.39,32.19,27.09,987.87,0.27,-4.78,8.45,1.58,-29.48,-121.72
211,0,0,0,0,0,2020,8,2,0,3,33,0,0,0,4.64,3.79,5.00,5.00,15.94,6.78,27.38,32.17,27.09,987.72,0.54,-4.82,8.30,3.19,-30.09,-123.68
212,0,0,0,0,0,2020,8,2,0,3,34,0,0,0,4.66,3.80,5.00,5.00,15.22,6.22,27.41,32.21,27.10,987.70,0.31,-4.70,8.22,1.85,-29.76,-121.34
213,0,0,0,0,0,2020,8,2,0,3,35,0,0,0,4.64,3.79,5.00,5.00,15.90,6.93,27.40,32.17,27.11,987.85,0.42,-4.78,8.41,2.49,-29.57,-121.83
214,0,0,0,0,0,2020,8,2,0,3,36,0,0,0,4.66,3.80,5.00,5.00,15.33,6.33,27.40,32.19,27.12,987.88,0.46,-4.78,8.30,2.74,-29.91,-122.41
215,0,0,0,0,0,2020,8,2,0,3,37,0,0,0,4.65,3.79,5.00,5.00,15.72,7.01,27.40,32.19,27.11,987.83,0.34,-4.70,8.34,2.06,-29.41,-122.05
216,0,0,0,0,0,2020,8,2,0,3,38,0,0,0,4.65,3.81,5.00,5.00,15.38,6.37,27.41,32.22,27.11,987.69,0.46,-4.82,8.26,2.75,-30.22,-122.51
217,0,0,0,0,0,2020,8,2,0,3,39,0,0,0,4.64,3.79,5.00,5.00,15.92,7.10,27.43,32.22,27.09,987.72,0.38,-4.67,8.45,2.27,-28.88,-122.30
218,0,0,0,0,0,2020,8,2,0,3,40,0,0,0,4.65,3.80,5.00,5.00,15.38,5.99,27.42,32.22,27.15,987.90,0.46,-4.90,8.38,2.71,-30.27,-122.50
219,0,0,0,0,0,2020,8,2,0,3,41,0,0,0,4.64,3.79,5.00,5.00,13.82,6.70,27.41,32.18,27.16,987.77,0.46,-4.78,8.41,2.72,-29.57,-122.48
220,0,0,0,0,0,2020,8,2,0,3,42,0,0,0,4.64,3.81,5.00,5.00,15.03,6.52,27.43,32.20,27.16,987.99,0.54,-4.78,8.26,3.21,-30.01,-123.19
221,0,0,0,0,0,2020,8,2,0,3,43,0,0,0,4.65,3.79,5.00,5.00,12.58,6.98,27.44,32.24,27.13,987.82,0.46,-4.78,8.49,2.70,-29.35,-122.35
222,0,0,0,0,0,2020,8,2,0,3,44,0,0,0,4.59,3.81,5.00,5.00,15.77,6.46,27.44,32.26,27.16,987.74,0.38,-4.74,8.38,2.28,-29.49,-122.02
223,0,0,0,0,0,2020,8,2,0,3,45,0,0,0,4.64,3.79,5.00,5.00,15.92,4.72,27.45,32.27,27.12,987.69,0.57,-4.86,8.38,3.39,-30.05,-122.73
224,0,0,0,0,0,2020,8,2,0,3,46,0,0,0,4.61,3.81,5.00,5.00,15.31,6.45,27.47,32.30,27.15,987.85,0.38,-4.78,8.38,2.27,-29.69,-121.96
225,0,0,0,0,0,2020,8,2,0,3,47,0,0,0,4.64,3.79,5.00,5.00,15.97,5.13,27.45,32.29,27.16,987.87,0.38,-4.90,8.26,2.28,-30.62,-122.61
226,0,0,0,0,0,2020,8,2,0,3,48,0,0,0,4.65,3.80,5.00,5.00,15.38,6.30,27.46,32.33,27.14,987.90,0.54,-4.82,8.53,3.13,-29.42,-122.82
227,0,0,0,0,0,2020,8,2,0,3,49,0,0,0,4.65,3.79,5.00,5.00,16.17,7.10,27.47,32.32,27.16,987.84,0.42,-4.93,8.41,2.47,-30.35,-121.82
228,0,0,0,0,0,2020,8,2,0,3,50,0,0,0,4.59,3.81,5.00,5.00,15.63,6.09,27.47,32.30,27.18,987.78,0.61,-5.12,8.15,3.64,-32.10,-122.25
229,0,0,0,0,0,2020,8,2,0,3,51,0,0,0,4.65,3.79,5.00,5.00,16.01,6.87,27.47,32.28,27.19,987.83,-0.84,-6.08,7.46,-5.00,-39.02,-113.17
230,0,0,0,0,0,2020,8,2,0,3,52,0,0,0,4.65,3.81,5.00,5.00,15.41,6.34,27.48,32.28,27.19,987.69,-1.19,-6.73,6.88,-7.02,-43.94,-108.80
231,0,0,0,0,0,2020,8,2,0,3,53,0,0,0,4.64,3.79,5.00,5.00,16.06,7.08,27.49,32.26,27.18,987.86,0.11,-6.54,7.11,0.68,-42.59,-120.77
232,0,0,0,0,0,2020,8,2,0,3,54,0,0,0,4.64,3.81,5.00,5.00,15.45,6.27,27.48,32.32,27.16,987.97,-0.11,-6.46,7.19,-0.68,-41.95,-119.86
233,0,0,0,0,0,2020,8,2,0,3,55,0,0,0,4.65,3.79,5.00,5.00,16.02,7.16,27.50,32.30,27.18,987.85,0.08,-6.54,7.23,0.45,-42.14,-120.23
234,0,0,0,0,0,2020,8,2,0,3,56,0,0,0,4.65,3.81,5.00,5.00,15.53,6.20,27.51,32.29,27.20,987.76,-0.08,-6.50,7.42,-0.44,-41.23,-118.72
235,0,0,0,0,0,2020,8,2,0,3,57,0,0,0,4.64,3.79,5.00,5.00,16.10,6.86,27.50,32.30,27.21,987.91,-0.08,-6.54,7.42,-0.44,-41.39,-118.92
236,0,0,0,0,0,2020,8,2,0,3,58,0,0,0,4.65,3.81,5.00,5.00,15.48,6.36,27.53,32.34,27.22,987.87,-0.27,-6.50,7.42,-1.55,-41.21,-117.39
237,0,0,0,0,0,2020,8,2,0,3,59,0,0,0,4.64,3.79,5.00,5.00,15.97,7.07,27.52,32.33,27.23,987.86,-0.08,-6.65,7.15,-0.45,-42.94,-119.71
238,0,0,0,0,0,2020,8,2,0,4,0,0,0,0,4.64,3.81,5.00,5.00,13.05,6.41,27.53,32.30,27.20,987.83,0.04,-6.54,7.04,0.23,-42.90,-120.26
239,0,0,0,0,0,2020,8,2,0,4,1,0,0,0,4.64,3.79,5.00,5.00,15.89,6.75,27.54,32.30,27.20,987.64,0.00,-6.54,7.34,0.00,-41.69,-119.06
240,0,0,0,0,0,2020,8,2,0,4,2,0,0,0,4.66,3.81,5.00,5.00,15.21,6.09,27.53,32.34,27.24,987.70,0.00,-6.58,7.19,0.00,-42.46,-119.80
241,0,0,0,0,0,2020,8,2,0,4,3,0,0,0,4.64,3.79,5.00,5.00,15.96,7.17,27.55,32.31,27.23,987.76,0.04,-6.46,7.34,0.22,-41.35,-119.39
242,0,0,0,0,0,2020,8,2,0,4,4,0,0,0,4.66,3.81,5.00,5.00,14.12,5.84,27.54,32.31,27.25,987.86,-0.04,-6.54,7.19,-0.23,-42.29,-120.00
243,0,0,0,0,0,2020,8,2,0,4,5,0,0,0,4.64,3.79,5.00,5.00,16.09,7.02,27.54,32.34,27.23,987.84,0.11,-6.46,7.19,0.68,-41.95,-120.40
244,0,0,0,0,0,2020,8,2,0,4,6,0,0,0,4.64,3.81,5.00,5.00,13.91,6.05,27.54,32.30,27.23,987.91,-0.11,-6.43,7.27,-0.68,-41.48,-118.04
245,0,0,0,0,0,2020,8,2,0,4,7,0,0,0,4.59,3.79,5.00,5.00,16.22,6.99,27.56,32.34,27.23,987.69,0.00,-6.58,7.27,0.00,-42.15,-119.93
246,0,0,0,0,0,2020,8,2,0,4,8,0,0,0,4.65,3.80,5.00,5.00,15.33,6.35,27.55,32.31,27.23,987.64,0.04,-6.35,7.46,0.22,-40.41,-119.72
247,0,0,0,0,0,2020,8,2,0,4,9,0,0,0,4.58,3.79,5.00,5.00,16.02,7.23,27.56,32.31,27.23,987.65,-0.11,-6.50,7.23,-0.68,-41.97,-118.78
248,0,0,0,0,0,2020,8,2,0,4,10,0,0,0,4.65,3.80,5.00,5.00,15.40,4.85,27.58,32.37,27.25,987.60,0.00,-6.43,7.23,0.00,-41.63,-119.76
249,0,0,0,0,0,2020,8,2,0,4,11,0,0,0,4.64,3.79,5.00,5.00,16.07,7.32,27.59,32.32,27.24,987.90,-0.04,-6.46,7.30,-0.22,-41.50,-118.74
250,0,0,0,0,0,2020,8,2,0,4,12,0,0,0,4.64,3.81,5.00,5.00,15.16,6.45,27.60,32.34,27.27,987.81,-0.04,-6.46,7.23,-0.23,-41.80,-119.13
251,0,0,0,0,0,2020,8,2,0,4,13,0,0,0,4.63,3.79,5.00,5.00,15.98,7.26,27.62,32.38,27.26,987.98,0.15,-6.58,7.57,0.87,-40.97,-120.15
252,0,0,0,0,0,2020,8,2,0,4,14,0,0,0,4.65,3.81,5.00,5.00,15.26,6.73,27.61,32.32,27.25,987.92,0.04,-6.43,7.38,0.22,-41.04,-120.70
253,0,0,0,0,0,2020,8,2,0,4,15,0,0,0,4.63,3.79,5.00,5.00,16.03,7.06,27.59,32.31,27.24,987.77,-0.04,-6.43,7.27,-0.23,-41.48,-119.66
254,0,0,0,0,0,2020,8,2,0,4,16,0,0,0,4.65,3.80,5.00,5.00,15.49,6.37,27.59,32.34,27.27,987.88,0.08,-6.54,7.30,0.45,-41.84,-120.02
255,0,0,0,0,0,2020,8,2,0,4,17,0,0,0,4.64,3.79,5.00,5.00,16.10,7.25,27.61,32.30,27.27,987.79,0.04,-6.31,7.30,0.23,-40.82,-120.36
256,0,0,0,0,0,2020,8,2,0,4,18,0,0,0,4.65,3.80,5.00,5.00,15.73,6.49,27.61,32.36,27.27,987.75,0.04,-6.39,7.19,0.23,-41.61,-119.70
257,0,0,0,0,0,2020,8,2,0,4,19,0,0,0,4.64,3.79,5.00,5.00,15.93,6.98,27.63,32.31,27.28,987.85,-0.04,-6.35,7.34,-0.23,-40.85,-119.31
258,0,0,0,0,0,2020,8,2,0,4,20,0,0,0,4.65,3.81,5.00,5.00,15.47,6.62,27.64,32.39,27.27,987.62,0.04,-6.39,7.57,0.22,-40.15,-118.31
259,0,0,0,0,0,2020,8,2,0,4,21,0,0,0,4.64,3.79,5.00,5.00,15.92,6.68,27.64,32.36,27.28,987.67,0.04,-6.39,7.30,0.23,-41.16,-119.35
260,0,0,0,0,0,2020,8,2,0,4,22,0,0,0,4.65,3.81,5.00,5.00,15.54,6.29,27.64,32.31,27.30,987.87,0.08,-6.35,7.30,0.45,-40.99,-119.93
261,0,0,0,0,0,2020,8,2,0,4,23,0,0,0,4.64,3.79,5.00,5.00,14.10,7.25,27.64,32.34,27.34,987.67,0.19,-6.46,7.46,1.11,-40.91,-120.90
262,0,0,0,0,0,2020,8,2,0,4,24,0,0,0,4.65,3.80,5.00,5.00,15.62,6.55,27.65,32.38,27.30,987.70,0.08,-6.46,7.23,0.45,-41.80,-119.22
263,0,0,0,0,0,2020,8,2,0,4,25,0,0,0,4.65,3.79,5.00,5.00,13.33,7.20,27.65,32.38,27.34,987.71,0.08,-6.43,7.38,0.45,-41.04,-119.79
264,0,0,0,0,0,2020,8,2,0,4,26,0,0,0,4.62,3.81,5.00,5.00,15.54,6.52,27.66,32.35,27.30,987.69,0.08,-6.35,7.46,0.45,-40.41,-119.70
265,0,0,0,0,0,2020,8,2,0,4,27,0,0,0,4.64,3.79,5.00,5.00,16.07,5.19,27.65,32.37,27.34,987.89,0.04,-6.31,7.38,0.23,-40.53,-119.17
266,0,0,0,0,0,2020,8,2,0,4,28,0,0,0,4.60,3.81,5.00,5.00,15.69,6.64,27.68,32.38,27.36,987.84,0.11,-6.39,7.50,0.67,-40.43,-119.57
267,0,0,0,0,0,2020,8,2,0,4,29,0,0,0,4.64,3.79,5.00,5.00,16.17,4.40,27.69,32.42,27.31,987.80,0.11,-6.27,7.61,0.67,-39.49,-119.76
268,0,0,0,0,0,2020,8,2,0,4,30,0,0,0,4.65,3.81,5.00,5.00,15.69,6.49,27.69,32.36,27.34,987.87,0.08,-6.39,7.19,0.46,-41.61,-119.89
269,0,0,0,0,0,2020,8,2,0,4,31,0,0,0,4.64,3.79,5.00,5.00,16.17,7.04,27.67,32.37,27.34,987.88,0.11,-6.31,7.46,0.67,-40.23,-119.19
270,0,0,0,0,0,2020,8,2,0,4,32,0,0,0,4.58,3.80,5.00,5.00,15.55,6.48,27.67,32.42,27.33,987.74,0.11,-6.35,7.50,0.67,-40.26,-120.17
271,0,0,0,0,0,2020,8,2,0,4,33,0,0,0,4.64,3.79,5.00,5.00,16.35,7.20,27.66,32.39,27.35,987.90,0.00,-6.31,7.19,0.00,-41.27,-119.64
272,0,0,0,0,0,2020,8,2,0,4,34,0,0,0,4.65,3.81,5.00,5.00,15.47,6.79,27.66,32.38,27.34,987.73,-0.04,-6.35,7.38,-0.23,-40.70,-119.20
273,0,0,0,0,0,2020,8,2,0,4,35,0,0,0,4.64,3.79,5.00,5.00,16.25,6.97,27.66,32.40,27.34,987.71,0.04,-6.35,7.38,0.23,-40.70,-120.21
274,0,0,0,0,0,2020,8,2,0,4,36,0,0,0,4.65,3.81,5.00,5.00,15.43,6.64,27.70,32.41,27.34,987.75,0.34,-6.31,7.50,2.01,-40.06,-120.67
275,0,0,0,0,0,2020,8,2,0,4,37,0,0,0,4.64,3.79,5.00,5.00,16.00,7.77,27.70,32.40,27.34,987.73,-1.30,-8.41,5.51,-7.37,-56.08,-106.41
276,0,0,0,0,0,2020,8,2,0,4,38,0,0,0,4.65,3.80,5.00,5.00,15.58,6.57,27.70,32.45,27.38,987.74,-2.87,-8.34,4.59,-16.77,-57.01,-85.45
277,0,0,0,0,0,2020,8,2,0,4,39,0,0,0,4.63,3.79,5.00,5.00,16.06,7.21,27.71,32.38,27.36,987.69,-2.64,-8.49,4.51,-15.35,-58.38,-88.34
278,0,0,0,0,0,2020,8,2,0,4,40,0,0,0,4.65,3.80,5.00,5.00,15.69,6.64,27.73,32.41,27.38,987.82,-1.99,-7.84,5.47,-11.75,-53.42,-98.57
279,0,0,0,0,0,2020,8,2,0,4,41,0,0,0,4.63,3.79,5.00,5.00,16.05,7.26,27.73,32.45,27.38,987.80,-0.34,-7.27,6.46,-2.03,-48.31,-118.53
Packet Number,SIV,FixType,Latitude,Longitude,Altitude,Year,Month,Day,Hour,Min,Sec,NNV,NEV,NDV,Battery,3v3 Supply,5v Supply,Radio Supply,Analog Internal,Analog External,Altimeter Temp,Digital Internal,Digital External,Pressure,Accel A,Accel Y,Accel Z,Pitch,Roll,Yaw
0,0,0,0,0,0,2020,8,2,0,0,2,0,0,0,4.66,3.81,5.00,5.00,13.01,6.10,27.66,31.47,27.38,987.72,0.57,-5.35,7.30,3.62,-36.16,-125.10
1,0,0,0,0,0,2020,8,2,0,0,3,0,0,0,4.65,3.80,5.00,5.00,13.58,6.73,27.67,31.44,27.38,987.78,0.31,-5.12,8.22,1.81,-31.92,-122.99
2,0,0,0,0,0,2020,8,2,0,0,4,0,0,0,4.64,3.81,5.00,5.00,12.87,6.19,27.65,31.42,27.37,987.72,0.92,-4.28,8.49,5.51,-26.64,-124.14
3,0,0,0,0,0,2020,8,2,0,0,5,0,0,0,4.65,3.80,5.00,5.00,13.36,6.98,27.63,31.34,27.34,987.58,1.45,-3.98,8.95,8.44,-23.69,-127.29
4,0,0,0,0,0,2020,8,2,0,0,6,0,0,0,4.67,3.81,5.00,5.00,12.65,6.12,27.65,31.34,27.34,987.85,1.64,-4.02,8.49,9.93,-24.91,-129.46
5,0,0,0,0,0,2020,8,2,0,0,7,0,0,0,4.65,3.80,5.00,5.00,13.37,6.85,27.66,31.37,27.39,987.74,1.84,-3.90,8.61,11.00,-23.91,-129.62
6,0,0,0,0,0,2020,8,2,0,0,8,0,0,0,4.66,3.82,5.00,5.00,12.76,6.49,27.67,31.37,27.38,987.74,1.84,-4.02,8.99,10.56,-23.64,-128.99
7,0,0,0,0,0,2020,8,2,0,0,9,0,0,0,4.65,3.80,5.00,5.00,11.89,7.00,27.65,31.36,27.35,987.77,0.46,-5.09,8.18,2.73,-31.82,-125.27
8,0,0,0,0,0,2020,8,2,0,0,10,0,0,0,4.61,3.81,5.00,5.00,12.59,6.38,27.65,31.36,27.36,987.84,0.76,-4.21,8.53,4.60,-26.16,-125.58
9,0,0,0,0,0,2020,8,2,0,0,11,0,0,0,4.66,3.80,5.00,5.00,13.33,4.57,27.66,31.36,27.36,987.69,1.68,-3.98,8.76,9.92,-24.04,-129.87
10,0,0,0,0,0,2020,8,2,0,0,12,0,0,0,4.61,3.81,5.00,5.00,12.64,6.41,27.66,31.33,27.36,987.89,1.57,-4.28,8.45,9.40,-26.49,-131.12
11,0,0,0,0,0,2020,8,2,0,0,13,0,0,0,4.65,3.80,5.00,5.00,12.86,3.16,27.63,31.34,27.37,987.76,1.68,-3.90,8.38,10.32,-24.54,-130.64
12,0,0,0,0,0,2020,8,2,0,0,14,0,0,0,4.65,3.81,5.00,5.00,12.72,6.36,27.65,31.38,27.37,987.68,1.68,-3.94,8.53,10.16,-24.38,-131.31
13,0,0,0,0,0,2020,8,2,0,0,15,0,0,0,4.65,3.80,5.00,5.00,13.30,6.96,27.65,31.41,27.38,987.81,1.68,-3.79,8.68,10.07,-23.18,-130.24
14,0,0,0,0,0,2020,8,2,0,0,16,0,0,0,4.60,3.81,5.00,5.00,12.74,6.23,27.64,31.42,27.35,987.68,1.64,-3.94,8.30,10.15,-24.97,-131.39
15,0,0,0,0,0,2020,8,2,0,0,17,0,0,0,4.65,3.80,5.00,5.00,13.40,6.45,27.63,31.39,27.37,987.73,1.91,-3.63,8.80,11.36,-21.98,-130.94
16,0,0,0,0,0,2020,8,2,0,0,18,0,0,0,4.66,3.82,5.00,5.00,12.80,6.27,27.65,31.43,27.37,987.67,1.76,-3.75,8.57,10.66,-23.20,-131.28
17,0,0,0,0,0,2020,8,2,0,0,19,0,0,0,4.65,3.80,5.00,5.00,13.40,6.88,27.65,31.44,27.38,987.61,1.76,-3.75,8.57,10.66,-23.20,-131.03
18,0,0,0,0,0,2020,8,2,0,0,20,0,0,0,4.65,3.81,5.00,5.00,12.73,6.62,27.66,31.45,27.38,987.90,1.76,-3.63,8.68,10.59,-22.30,-131.02
19,0,0,0,0,0,2020,8,2,0,0,21,0,0,0,4.65,3.80,5.00,5.00,13.84,6.73,27.66,31.48,27.37,987.89,1.91,-3.63,8.53,11.66,-22.57,-131.53
20,0,0,0,0,0,2020,8,2,0,0,22,0,0,0,4.64,3.81,5.00,5.00,12.80,6.49,27.66,31.51,27.34,987.66,1.87,-3.52,8.72,11.27,-21.53,-131.20
21,0,0,0,0,0,2020,8,2,0,0,23,0,0,0,4.65,3.80,5.00,5.00,13.77,7.08,27.65,31.49,27.40,987.74,1.95,-3.37,8.83,11.66,-20.40,-130.60
22,0,0,0,0,0,2020,8,2,0,0,24,0,0,0,4.67,3.81,5.00,5.00,13.14,6.00,27.66,31.50,27.40,987.53,-3.06,-5.05,8.61,-17.05,-28.93,-92.57
23,0,0,0,0,0,2020,8,2,0,0,25,0,0,0,4.65,3.80,5.00,5.00,13.65,7.01,27.65,31.48,27.38,987.86,-5.12,-6.12,5.32,-32.30,-39.65,-68.91
24,0,0,0,0,0,2020,8,2,0,0,26,0,0,0,4.68,3.81,5.00,5.00,12.66,6.25,27.64,31.51,27.38,987.46,-6.27,-4.93,6.27,-38.17,-29.08,-71.56
25,0,0,0,0,0,2020,8,2,0,0,27,0,0,0,4.64,3.79,5.00,5.00,13.58,6.99,27.66,31.54,27.39,987.80,-5.70,-6.23,5.12,-35.23,-39.13,-66.58
26,0,0,0,0,0,2020,8,2,0,0,28,0,0,0,4.66,3.81,5.00,5.00,13.23,6.27,27.66,31.51,27.41,987.80,-4.36,-6.43,6.08,-26.24,-40.65,-74.77
27,0,0,0,0,0,2020,8,2,0,0,29,0,0,0,4.65,3.79,5.00,5.00,13.49,7.06,27.64,31.48,27.39,987.73,-3.86,-6.35,6.73,-22.66,-39.28,-80.08
28,0,0,0,0,0,2020,8,2,0,0,30,0,0,0,4.65,3.81,5.00,5.00,11.33,5.97,27.61,31.52,27.40,987.83,-3.52,-6.46,6.58,-20.88,-40.91,-81.21
29,0,0,0,0,0,2020,8,2,0,0,31,0,0,0,4.64,3.79,5.00,5.00,13.92,6.90,27.61,31.53,27.39,987.64,-3.52,-6.46,6.58,-20.88,-40.91,-81.31
30,0,0,0,0,0,2020,8,2,0,0,32,0,0,0,4.65,3.81,5.00,5.00,10.56,5.30,27.63,31.53,27.37,987.93,-3.40,-6.31,6.62,-20.42,-40.30,-83.54
31,0,0,0,0,0,2020,8,2,0,0,33,0,0,0,4.58,3.80,5.00,5.00,13.62,7.03,27.62,31.57,27.38,987.79,-1.95,-6.20,7.34,-11.48,-39.20,-99.31
32,0,0,0,0,0,2020,8,2,0,0,34,0,0,0,4.64,3.81,5.00,5.00,13.36,6.27,27.64,31.54,27.39,987.87,-1.72,-6.04,7.42,-10.20,-38.43,-103.65
33,0,0,0,0,0,2020,8,2,0,0,35,0,0,0,4.57,3.80,5.00,5.00,13.90,7.19,27.63,31.55,27.36,987.87,-1.19,-6.08,7.76,-6.86,-37.75,-108.14
34,0,0,0,0,0,2020,8,2,0,0,36,0,0,0,4.67,3.81,5.00,5.00,13.65,4.60,27.63,31.55,27.40,987.65,-1.15,-6.35,7.57,-6.62,-39.66,-109.88
35,0,0,0,0,0,2020,8,2,0,0,37,0,0,0,4.64,3.79,5.00,5.00,14.45,7.13,27.63,31.57,27.38,987.72,-1.11,-6.12,7.46,-6.56,-39.06,-110.25
36,0,0,0,0,0,2020,8,2,0,0,38,0,0,0,4.64,3.81,5.00,5.00,13.81,6.08,27.63,31.59,27.39,987.74,-0.50,-6.35,7.57,-2.88,-39.92,-114.19
37,0,0,0,0,0,2020,8,2,0,0,39,0,0,0,4.63,3.79,5.00,5.00,14.21,6.89,27.65,31.60,27.38,987.85,-0.76,-5.89,7.76,-4.49,-37.05,-113.06
38,0,0,0,0,0,2020,8,2,0,0,40,0,0,0,4.66,3.81,5.00,5.00,13.10,6.01,27.64,31.59,27.37,987.88,-1.38,-5.51,8.15,-7.97,-33.69,-108.26
39,0,0,0,0,0,2020,8,2,0,0,41,0,0,0,4.64,3.80,5.00,5.00,14.06,6.44,27.63,31.61,27.38,987.86,-1.07,-5.85,7.76,-6.29,-36.75,-110.12
40,0,0,0,0,0,2020,8,2,0,0,42,0,0,0,4.67,3.81,5.00,5.00,13.64,6.36,27.63,31.61,27.40,987.64,-1.03,-5.85,7.73,-6.08,-36.90,-110.87
41,0,0,0,0,0,2020,8,2,0,0,43,0,0,0,4.65,3.79,5.00,5.00,14.29,7.06,27.64,31.63,27.39,987.70,-0.84,-5.85,7.50,-5.06,-37.80,-111.01
42,0,0,0,0,0,2020,8,2,0,0,44,0,0,0,4.66,3.81,5.00,5.00,13.68,6.65,27.63,31.63,27.38,987.68,-1.07,-5.85,7.88,-6.23,-36.35,-109.91
43,0,0,0,0,0,2020,8,2,0,0,45,0,0,0,4.65,3.80,5.00,5.00,14.23,7.09,27.63,31.66,27.40,987.73,-0.96,-5.81,7.69,-5.67,-36.89,-110.37
44,0,0,0,0,0,2020,8,2,0,0,46,0,0,0,4.65,3.80,5.00,5.00,13.45,6.50,27.65,31.60,27.38,987.81,-1.30,-5.58,7.57,-7.87,-36.01,-107.27
45,0,0,0,0,0,2020,8,2,0,0,47,0,0,0,4.64,3.79,5.00,5.00,14.21,6.99,27.65,31.68,27.35,987.86,-1.11,-5.81,7.73,-6.54,-36.68,-109.40
46,0,0,0,0,0,2020,8,2,0,0,48,0,0,0,4.65,3.81,5.00,5.00,13.48,6.62,27.66,31.70,27.38,987.83,-0.92,-4.97,7.88,-5.63,-32.08,-110.65
47,0,0,0,0,0,2020,8,2,0,0,49,0,0,0,4.65,3.79,5.00,5.00,11.50,7.20,27.65,31.67,27.39,987.87,-1.57,-5.51,7.69,-9.42,-35.07,-103.70
48,0,0,0,0,0,2020,8,2,0,0,50,0,0,0,4.65,3.81,5.00,5.00,13.71,6.42,27.63,31.66,27.37,987.79,-3.29,-2.41,8.80,-19.83,-14.39,-94.08
49,0,0,0,0,0,2020,8,2,0,0,51,0,0,0,4.65,3.79,5.00,5.00,13.67,7.06,27.60,31.63,27.35,987.47,-3.75,-0.92,8.87,-22.79,-5.44,-101.09
50,0,0,0,0,0,2020,8,2,0,0,52,0,0,0,4.61,3.80,5.00,5.00,13.54,6.43,27.58,31.67,27.35,987.59,-2.83,-0.42,9.75,-16.17,-2.37,-111.16
51,0,0,0,0,0,2020,8,2,0,0,53,0,0,0,4.65,3.79,5.00,5.00,14.40,4.97,27.49,31.63,27.34,985.84,-2.64,-0.42,9.22,-15.96,-2.51,-117.55
52,0,0,0,0,0,2020,8,2,0,0,54,0,0,0,4.62,3.81,5.00,5.00,13.51,6.44,27.54,31.59,27.37,987.67,-0.76,0.23,11.47,-3.81,1.14,-134.42
53,0,0,0,0,0,2020,8,2,0,0,55,0,0,0,4.64,3.80,5.00,5.00,13.08,5.48,27.51,31.55,27.34,987.61,-1.22,-0.84,7.99,-8.66,-5.94,-116.77
54,0,0,0,0,0,2020,8,2,0,0,56,0,0,0,4.66,3.81,5.00,5.00,13.39,6.36,27.43,31.55,27.27,986.69,-2.87,-2.29,7.92,-19.19,-15.24,-99.11
55,0,0,0,0,0,2020,8,2,0,0,57,0,0,0,4.64,3.79,5.00,5.00,14.21,7.02,27.45,31.52,27.30,987.14,-3.37,-2.56,9.94,-18.15,-13.72,-68.91
56,0,0,0,0,0,2020,8,2,0,0,58,0,0,0,4.59,3.81,5.00,5.00,13.72,6.29,27.45,31.49,27.25,987.03,-3.63,-1.53,8.61,-22.57,-9.30,-62.66
57,0,0,0,0,0,2020,8,2,0,0,59,0,0,0,4.65,3.79,5.00,5.00,14.07,6.71,27.46,31.53,27.30,987.37,-3.67,-1.49,8.83,-22.28,-8.86,-62.71
58,0,0,0,0,0,2020,8,2,0,1,0,0,0,0,4.65,3.81,5.00,5.00,13.64,6.52,27.48,31.55,27.32,987.43,-3.67,-1.49,8.72,-22.54,-8.96,-62.89
59,0,0,0,0,0,2020,8,2,0,1,1,0,0,0,4.64,3.80,5.00,5.00,14.27,6.87,27.49,31.54,27.31,987.31,-3.67,-1.53,8.53,-22.96,-9.36,-61.74
60,0,0,0,0,0,2020,8,2,0,1,2,0,0,0,4.65,3.81,5.00,5.00,13.61,6.37,27.51,31.58,27.32,987.47,-3.67,-1.57,8.72,-22.51,-9.41,-63.31
61,0,0,0,0,0,2020,8,2,0,1,3,0,0,0,4.65,3.79,5.00,5.00,14.66,7.08,27.51,31.62,27.29,987.39,-3.67,-1.53,8.64,-22.70,-9.25,-62.00
62,0,0,0,0,0,2020,8,2,0,1,4,0,0,0,4.65,3.81,5.00,5.00,13.77,6.45,27.53,31.61,27.33,987.40,-3.67,-1.53,8.80,-22.35,-9.12,-62.17
63,0,0,0,0,0,2020,8,2,0,1,5,0,0,0,4.64,3.80,5.00,5.00,14.55,7.19,27.53,31.63,27.34,987.45,-3.56,-1.57,8.72,-21.87,-9.45,-63.08
64,0,0,0,0,0,2020,8,2,0,1,6,0,0,0,4.66,3.81,5.00,5.00,13.91,6.30,27.55,31.64,27.33,987.49,-3.71,-1.57,8.72,-22.72,-9.40,-62.04
65,0,0,0,0,0,2020,8,2,0,1,7,0,0,0,4.64,3.80,5.00,5.00,14.64,7.05,27.55,31.66,27.33,987.58,-3.60,-1.53,8.68,-22.19,-9.25,-63.24
66,0,0,0,0,0,2020,8,2,0,1,8,0,0,0,4.64,3.81,5.00,5.00,13.35,6.45,27.54,31.66,27.36,987.56,-3.67,-1.45,8.87,-22.21,-8.61,-63.53
67,0,0,0,0,0,2020,8,2,0,1,9,0,0,0,4.64,3.80,5.00,5.00,14.56,7.12,27.56,31.64,27.35,987.35,-3.67,-1.57,8.80,-22.34,-9.34,-62.94
68,0,0,0,0,0,2020,8,2,0,1,10,0,0,0,4.66,3.81,5.00,5.00,14.10,6.50,27.57,31.69,27.35,987.52,-3.71,-1.49,8.80,-22.58,-8.88,-63.02
69,0,0,0,0,0,2020,8,2,0,1,11,0,0,0,4.64,3.80,5.00,5.00,14.72,7.14,27.58,31.67,27.37,987.54,-3.71,-1.49,8.76,-22.66,-8.91,-62.71
70,0,0,0,0,0,2020,8,2,0,1,12,0,0,0,4.63,3.81,5.00,5.00,13.45,6.33,27.59,31.71,27.38,987.27,-3.71,-1.53,8.68,-22.82,-9.20,-62.25
71,0,0,0,0,0,2020,8,2,0,1,13,0,0,0,4.64,3.79,5.00,5.00,14.80,7.26,27.60,31.67,27.36,987.39,-3.67,-1.53,9.18,-21.53,-8.80,-63.32
72,0,0,0,0,0,2020,8,2,0,1,14,0,0,0,4.66,3.81,5.00,5.00,12.72,6.18,27.61,31.71,27.39,987.32,-3.67,-1.57,8.80,-22.34,-9.34,-62.91
73,0,0,0,0,0,2020,8,2,0,1,15,0,0,0,4.58,3.79,5.00,5.00,14.85,7.22,27.62,31.73,27.40,987.41,-3.67,-1.49,8.76,-22.45,-8.93,-64.12
74,0,0,0,0,0,2020,8,2,0,1,16,0,0,0,4.64,3.81,5.00,5.00,14.17,6.31,27.63,31.72,27.43,987.41,-3.75,-1.53,8.80,-22.77,-9.09,-62.16
75,0,0,0,0,0,2020,8,2,0,1,17,0,0,0,4.57,3.79,5.00,5.00,15.01,7.08,27.63,31.75,27.41,987.43,-3.60,-1.49,8.76,-22.03,-8.95,-62.83
76,0,0,0,0,0,2020,8,2,0,1,18,0,0,0,4.64,3.81,5.00,5.00,14.35,5.73,27.64,31.76,27.38,987.49,-3.71,-1.53,8.80,-22.56,-9.10,-62.69
77,0,0,0,0,0,2020,8,2,0,1,19,0,0,0,4.63,3.79,5.00,5.00,14.92,7.18,27.64,31.78,27.43,987.55,-3.75,-1.53,8.76,-22.86,-9.12,-62.24
78,0,0,0,0,0,2020,8,2,0,1,20,0,0,0,4.65,3.81,5.00,5.00,14.36,6.37,27.64,31.77,27.43,987.58,-3.67,-1.53,8.80,-22.35,-9.12,-62.84
79,0,0,0,0,0,2020,8,2,0,1,21,0,0,0,4.61,3.79,5.00,5.00,15.31,7.20,27.65,31.78,27.41,987.51,-3.63,-1.61,8.99,-21.70,-9.41,-63.17
80,0,0,0,0,0,2020,8,2,0,1,22,0,0,0,4.65,3.80,5.00,5.00,14.59,6.66,27.66,31.78,27.41,987.42,-3.71,-1.53,8.87,-22.39,-9.04,-63.30
81,0,0,0,0,0,2020,8,2,0,1,23,0,0,0,4.64,3.80,5.00,5.00,15.46,7.19,27.66,31.81,27.45,987.40,-3.63,-1.64,8.95,-21.77,-9.66,-63.07
82,0,0,0,0,0,2020,8,2,0,1,24,0,0,0,4.65,3.81,5.00,5.00,14.83,6.63,27.68,31.81,27.46,987.60,-3.60,-1.57,8.76,-22.00,-9.40,-62.46
83,0,0,0,0,0,2020,8,2,0,1,25,0,0,0,4.64,3.79,5.00,5.00,15.26,7.01,27.68,31.81,27.44,987.45,-3.67,-1.53,8.76,-22.44,-9.15,-62.64
84,0,0,0,0,0,2020,8,2,0,1,26,0,0,0,4.64,3.81,5.00,5.00,14.97,6.60,27.67,31.86,27.46,987.26,-3.63,-1.57,8.80,-22.13,-9.36,-62.24
85,0,0,0,0,0,2020,8,2,0,1,27,0,0,0,4.64,3.79,5.00,5.00,15.41,7.36,27.68,31.87,27.47,987.52,-3.63,-1.49,8.83,-22.07,-8.87,-63.49
86,0,0,0,0,0,2020,8,2,0,1,28,0,0,0,4.64,3.81,5.00,5.00,14.86,6.54,27.70,31.85,27.48,987.44,-3.63,-1.49,8.76,-22.24,-8.94,-63.15
87,0,0,0,0,0,2020,8,2,0,1,29,0,0,0,4.64,3.80,5.00,5.00,15.35,7.55,27.70,31.85,27.48,987.47,-3.67,-1.49,8.83,-22.28,-8.86,-63.24
88,0,0,0,0,0,2020,8,2,0,1,30,0,0,0,4.65,3.80,5.00,5.00,14.73,6.98,27.71,31.88,27.50,987.44,-3.60,-1.53,8.72,-22.10,-9.21,-63.13
89,0,0,0,0,0,2020,8,2,0,1,31,0,0,0,4.64,3.79,5.00,5.00,15.22,7.38,27.71,31.88,27.51,987.46,-3.79,-1.57,8.91,-22.71,-9.20,-62.18
90,0,0,0,0,0,2020,8,2,0,1,32,0,0,0,4.65,3.81,5.00,5.00,14.70,6.71,27.72,31.91,27.50,987.60,-3.67,-1.53,8.83,-22.27,-9.08,-62.67
91,0,0,0,0,0,2020,8,2,0,1,33,0,0,0,4.64,3.79,5.00,5.00,15.31,7.48,27.73,31.91,27.51,987.45,-3.75,-1.53,8.64,-23.12,-9.22,-61.94
92,0,0,0,0,0,2020,8,2,0,1,34,0,0,0,4.65,3.81,5.00,5.00,15.46,6.44,27.73,31.91,27.50,987.48,-3.71,-1.53,8.80,-22.56,-9.10,-62.91
93,0,0,0,0,0,2020,8,2,0,1,35,0,0,0,4.64,3.80,5.00,5.00,15.71,6.26,27.73,31.88,27.50,987.52,-3.71,-1.49,8.76,-22.66,-8.91,-62.57
94,0,0,0,0,0,2020,8,2,0,1,36,0,0,0,4.62,3.81,5.00,5.00,15.26,6.73,27.73,31.95,27.52,987.53,-3.60,-1.57,8.99,-21.51,-9.20,-64.39
95,0,0,0,0,0,2020,8,2,0,1,37,0,0,0,4.64,3.79,5.00,5.00,15.60,6.00,27.73,31.94,27.52,987.38,-3.71,-1.61,8.83,-22.45,-9.52,-62.50
96,0,0,0,0,0,2020,8,2,0,1,38,0,0,0,4.64,3.81,5.00,5.00,15.28,6.54,27.73,31.96,27.54,987.39,-3.63,-1.57,8.76,-22.21,-9.39,-62.46
97,0,0,0,0,0,2020,8,2,0,1,39,0,0,0,4.64,3.79,5.00,5.00,15.92,7.34,27.74,31.98,27.51,987.42,-3.67,-1.57,8.72,-22.51,-9.41,-61.81
98,0,0,0,0,0,2020,8,2,0,1,40,0,0,0,4.58,3.81,5.00,5.00,15.12,6.54,27.75,31.94,27.57,987.40,-3.67,-1.49,8.61,-22.80,-9.06,-62.59
99,0,0,0,0,0,2020,8,2,0,1,41,0,0,0,4.64,3.79,5.00,5.00,15.97,6.86,27.77,31.97,27.52,987.48,-3.79,-1.53,8.72,-23.16,-9.14,-61.64
100,0,0,0,0,0,2020,8,2,0,1,42,0,0,0,4.65,3.81,5.00,5.00,15.38,7.12,27.77,31.97,27.58,987.46,-3.63,-1.57,8.76,-22.21,-9.39,-63.34
101,0,0,0,0,0,2020,8,2,0,1,43,0,0,0,4.64,3.79,5.00,5.00,15.80,7.13,27.78,31.96,27.59,987.65,-3.63,-1.49,8.87,-21.99,-8.84,-63.06
102,0,0,0,0,0,2020,8,2,0,1,44,0,0,0,4.64,3.81,5.00,5.00,15.26,6.90,27.78,31.98,27.57,987.56,-3.67,-1.49,8.72,-22.54,-8.96,-62.84
103,0,0,0,0,0,2020,8,2,0,1,45,0,0,0,4.64,3.79,5.00,5.00,15.84,7.31,27.79,31.96,27.59,987.51,-3.60,-1.61,8.80,-21.90,-9.59,-62.41
104,0,0,0,0,0,2020,8,2,0,1,46,0,0,0,4.65,3.80,5.00,5.00,15.61,6.60,27.79,31.99,27.55,987.47,-3.56,-1.57,8.68,-21.96,-9.49,-62.68
105,0,0,0,0,0,2020,8,2,0,1,47,0,0,0,4.64,3.79,5.00,5.00,16.05,7.52,27.80,31.95,27.59,987.40,-3.63,-1.45,8.45,-22.96,-8.98,-62.75
106,0,0,0,0,0,2020,8,2,0,1,48,0,0,0,4.65,3.80,5.00,5.00,15.44,7.09,27.81,31.99,27.59,987.58,-3.63,-1.57,8.76,-22.21,-9.39,-62.79
107,0,0,0,0,0,2020,8,2,0,1,49,0,0,0,4.64,3.79,5.00,5.00,16.10,7.87,27.82,32.02,27.56,987.41,-3.67,-1.49,8.80,-22.37,-8.89,-62.54
108,0,0,0,0,0,2020,8,2,0,1,50,0,0,0,4.65,3.81,5.00,5.00,15.00,6.75,27.82,31.98,27.60,987.49,-3.71,-1.49,8.83,-22.49,-8.85,-62.50
109,0,0,0,0,0,2020,8,2,0,1,51,0,0,0,4.64,3.79,5.00,5.00,16.51,7.08,27.83,32.00,27.62,987.38,-3.71,-1.53,8.53,-23.18,-9.34,-62.68
110,0,0,0,0,0,2020,8,2,0,1,52,0,0,0,4.64,3.81,5.00,5.00,15.82,7.06,27.84,32.02,27.59,987.48,-3.67,-1.45,8.80,-22.38,-8.67,-63.63
111,0,0,0,0,0,2020,8,2,0,1,53,0,0,0,4.63,3.79,5.00,5.00,16.17,7.55,27.85,32.03,27.63,987.38,-3.71,-1.53,8.80,-22.56,-9.10,-62.45
112,0,0,0,0,0,2020,8,2,0,1,54,0,0,0,4.65,3.80,5.00,5.00,15.05,6.79,27.85,32.01,27.63,987.44,-3.71,-1.49,8.83,-22.49,-8.85,-62.79
113,0,0,0,0,0,2020,8,2,0,1,55,0,0,0,4.64,3.79,5.00,5.00,16.28,7.30,27.88,32.09,27.63,987.51,-3.71,-1.49,8.83,-22.49,-8.85,-62.84
114,0,0,0,0,0,2020,8,2,0,1,56,0,0,0,4.65,3.80,5.00,5.00,14.70,6.55,27.85,32.02,27.63,987.44,-3.75,-1.61,8.72,-22.91,-9.61,-61.24
115,0,0,0,0,0,2020,8,2,0,1,57,0,0,0,4.57,3.79,5.00,5.00,16.32,7.60,27.88,32.05,27.64,987.51,-3.67,-1.53,8.80,-22.35,-9.12,-62.02
116,0,0,0,0,0,2020,8,2,0,1,58,0,0,0,4.64,3.80,5.00,5.00,15.89,6.69,27.87,32.09,27.66,987.23,-3.67,-1.57,8.83,-22.25,-9.31,-62.87
117,0,0,0,0,0,2020,8,2,0,1,59,0,0,0,4.56,3.79,5.00,5.00,16.44,7.49,27.88,32.07,27.66,987.33,-3.63,-1.49,8.72,-22.33,-8.97,-63.33
118,0,0,0,0,0,2020,8,2,0,2,0,0,0,0,4.65,3.80,5.00,5.00,15.77,6.08,27.90,32.05,27.68,987.43,-3.67,-1.53,8.83,-22.27,-9.08,-63.20
119,0,0,0,0,0,2020,8,2,0,2,1,0,0,0,4.63,3.80,5.00,5.00,16.43,7.53,27.90,32.09,27.67,987.27,-3.67,-1.49,8.80,-22.37,-8.89,-62.40
120,0,0,0,0,0,2020,8,2,0,2,2,0,0,0,4.64,3.81,5.00,5.00,15.82,7.05,27.91,32.06,27.71,987.54,-3.67,-1.57,8.80,-22.34,-9.34,-62.23
121,0,0,0,0,0,2020,8,2,0,2,3,0,0,0,4.61,3.79,5.00,5.00,16.50,7.62,27.90,32.11,27.68,987.48,-3.71,-1.53,8.80,-22.56,-9.10,-62.50
122,0,0,0,0,0,2020,8,2,0,2,4,0,0,0,4.65,3.80,5.00,5.00,16.03,6.91,27.92,32.13,27.66,987.36,-3.63,-1.53,8.91,-21.89,-9.03,-62.65
123,0,0,0,0,0,2020,8,2,0,2,5,0,0,0,4.63,3.79,5.00,5.00,16.57,7.60,27.92,32.16,27.70,987.23,-3.60,-1.53,8.76,-22.02,-9.18,-62.84
124,0,0,0,0,0,2020,8,2,0,2,6,0,0,0,4.64,3.80,5.00,5.00,15.99,6.92,27.92,32.16,27.73,987.33,-3.63,-1.57,8.76,-22.21,-9.39,-62.86
125,0,0,0,0,0,2020,8,2,0,2,7,0,0,0,4.64,3.79,5.00,5.00,16.53,7.62,27.95,32.13,27.70,987.50,-3.71,-1.61,8.68,-22.79,-9.66,-62.33
126,0,0,0,0,0,2020,8,2,0,2,8,0,0,0,4.65,3.81,5.00,5.00,15.96,6.84,27.93,32.17,27.71,987.30,-3.63,-1.53,8.76,-22.23,-9.17,-62.79
127,0,0,0,0,0,2020,8,2,0,2,9,0,0,0,4.63,3.79,5.00,5.00,16.63,7.69,27.95,32.16,27.73,987.36,-3.67,-1.53,8.87,-22.18,-9.05,-63.35
128,0,0,0,0,0,2020,8,2,0,2,10,0,0,0,4.64,3.80,5.00,5.00,16.23,6.92,27.95,32.17,27.72,987.51,-3.67,-1.61,8.72,-22.49,-9.64,-62.45
129,0,0,0,0,0,2020,8,2,0,2,11,0,0,0,4.63,3.79,5.00,5.00,16.70,7.77,27.97,32.20,27.76,987.43,-3.67,-1.57,8.76,-22.42,-9.38,-63.04
130,0,0,0,0,0,2020,8,2,0,2,12,0,0,0,4.64,3.80,5.00,5.00,16.14,7.03,27.97,32.20,27.73,987.35,-3.82,-1.57,8.80,-23.17,-9.28,-62.51
131,0,0,0,0,0,2020,8,2,0,2,13,0,0,0,4.64,3.79,5.00,5.00,16.44,7.77,27.98,32.21,27.73,987.54,-3.71,-1.61,8.76,-22.62,-9.59,-62.27
132,0,0,0,0,0,2020,8,2,0,2,14,0,0,0,4.64,3.80,5.00,5.00,16.31,6.95,27.98,32.17,27.76,987.43,-3.63,-1.53,8.80,-22.14,-9.13,-63.73
133,0,0,0,0,0,2020,8,2,0,2,15,0,0,0,4.64,3.79,5.00,5.00,16.65,7.74,27.98,32.20,27.77,987.41,-3.75,-1.53,8.80,-22.77,-9.09,-62.45
134,0,0,0,0,0,2020,8,2,0,2,16,0,0,0,4.64,3.81,5.00,5.00,16.19,7.09,27.99,32.23,27.77,987.57,-3.67,-1.57,8.76,-22.42,-9.38,-63.07
135,0,0,0,0,0,2020,8,2,0,2,17,0,0,0,4.64,3.79,5.00,5.00,16.89,7.09,28.00,32.22,27.77,987.32,-3.67,-1.57,8.49,-23.04,-9.62,-61.63
136,0,0,0,0,0,2020,8,2,0,2,18,0,0,0,4.61,3.80,5.00,5.00,16.43,6.85,28.00,32.28,27.74,987.48,-3.67,-1.61,8.76,-22.41,-9.60,-62.57
137,0,0,0,0,0,2020,8,2,0,2,19,0,0,0,4.64,3.79,5.00,5.00,16.63,6.79,28.00,32.30,27.78,987.46,-3.63,-1.57,8.80,-22.13,-9.36,-62.47
138,0,0,0,0,0,2020,8,2,0,2,20,0,0,0,4.61,3.80,5.00,5.00,16.51,7.34,27.98,32.29,27.77,987.27,-3.60,-1.57,8.83,-21.83,-9.34,-63.67
139,0,0,0,0,0,2020,8,2,0,2,21,0,0,0,4.63,3.79,5.00,5.00,17.07,7.78,27.99,32.32,27.77,987.33,-3.63,-1.57,8.68,-22.38,-9.46,-62.82
140,0,0,0,0,0,2020,8,2,0,2,22,0,0,0,4.58,3.81,5.00,5.00,16.38,7.10,28.00,32.34,27.77,987.49,-3.67,-1.42,8.95,-22.06,-8.32,-63.74
141,0,0,0,0,0,2020,8,2,0,2,23,0,0,0,4.64,3.79,5.00,5.00,16.97,7.24,28.00,32.37,27.80,987.47,-3.71,-1.45,8.76,-22.68,-8.69,-63.21
142,0,0,0,0,0,2020,8,2,0,2,24,0,0,0,4.65,3.80,5.00,5.00,16.36,7.20,28.01,32.39,27.78,987.41,-3.71,-1.45,8.80,-22.59,-8.66,-63.39
143,0,0,0,0,0,2020,8,2,0,2,25,0,0,0,4.64,3.79,5.00,5.00,17.25,7.85,28.00,32.34,27.79,987.32,-3.56,-1.64,8.61,-22.10,-10.02,-61.93
144,0,0,0,0,0,2020,8,2,0,2,26,0,0,0,4.64,3.81,5.00,5.00,16.69,7.12,28.01,32.38,27.78,987.36,-3.67,-1.49,8.91,-22.12,-8.80,-62.77
145,0,0,0,0,0,2020,8,2,0,2,27,0,0,0,4.63,3.79,5.00,5.00,17.29,7.77,28.02,32.34,27.80,987.25,-3.71,-1.57,8.80,-22.55,-9.33,-62.13
146,0,0,0,0,0,2020,8,2,0,2,28,0,0,0,4.64,3.81,5.00,5.00,16.83,7.06,28.01,32.41,27.80,987.37,-3.71,-1.53,8.76,-22.65,-9.14,-62.43
147,0,0,0,0,0,2020,8,2,0,2,29,0,0,0,4.64,3.79,5.00,5.00,17.43,7.83,28.03,32.39,27.80,987.54,-3.71,-1.53,8.72,-22.74,-9.17,-62.32
148,0,0,0,0,0,2020,8,2,0,2,30,0,0,0,4.64,3.80,5.00,5.00,16.87,6.96,28.03,32.38,27.82,987.36,-3.71,-1.53,8.80,-22.56,-9.10,-62.36
149,0,0,0,0,0,2020,8,2,0,2,31,0,0,0,4.64,3.79,5.00,5.00,17.57,7.73,28.02,32.42,27.81,987.33,-3.71,-1.53,8.76,-22.65,-9.14,-62.58
150,0,0,0,0,0,2020,8,2,0,2,32,0,0,0,4.65,3.80,5.00,5.00,16.16,7.23,28.02,32.41,27.82,987.24,-3.67,-1.49,8.72,-22.54,-8.96,-63.14
151,0,0,0,0,0,2020,8,2,0,2,33,0,0,0,4.64,3.79,5.00,5.00,17.40,7.74,28.03,32.42,27.80,987.32,-3.60,-1.49,9.03,-21.45,-8.73,-64.16
152,0,0,0,0,0,2020,8,2,0,2,34,0,0,0,4.64,3.81,5.00,5.00,16.67,7.40,28.04,32.46,27.80,987.54,-3.67,-1.53,8.72,-22.52,-9.18,-62.38
153,0,0,0,0,0,2020,8,2,0,2,35,0,0,0,4.64,3.79,5.00,5.00,17.68,7.84,28.05,32.46,27.82,987.42,-3.63,-1.57,8.72,-22.30,-9.42,-62.54
154,0,0,0,0,0,2020,8,2,0,2,36,0,0,0,4.64,3.80,5.00,5.00,16.45,7.56,28.06,32.48,27.82,987.43,-3.67,-1.53,8.83,-22.27,-9.08,-63.24
155,0,0,0,0,0,2020,8,2,0,2,37,0,0,0,4.63,3.79,5.00,5.00,17.59,7.76,28.07,32.49,27.87,987.32,-3.63,-1.53,8.80,-22.14,-9.13,-63.67
156,0,0,0,0,0,2020,8,2,0,2,38,0,0,0,4.65,3.80,5.00,5.00,16.17,7.14,28.07,32.54,27.84,987.21,-3.67,-1.53,8.72,-22.52,-9.18,-63.40
157,0,0,0,0,0,2020,8,2,0,2,39,0,0,0,4.57,3.79,5.00,5.00,17.44,7.97,28.08,32.52,27.84,987.42,-3.71,-1.53,8.87,-22.39,-9.04,-63.26
158,0,0,0,0,0,2020,8,2,0,2,40,0,0,0,4.65,3.80,5.00,5.00,17.04,7.47,28.09,32.49,27.84,987.39,-3.63,-1.57,8.80,-22.13,-9.36,-62.72
159,0,0,0,0,0,2020,8,2,0,2,41,0,0,0,4.57,3.79,5.00,5.00,17.58,7.77,28.08,32.52,27.87,987.45,-3.71,-1.49,8.72,-22.75,-8.94,-62.02
160,0,0,0,0,0,2020,8,2,0,2,42,0,0,0,4.64,3.80,5.00,5.00,16.93,6.23,28.10,32.54,27.84,987.39,-3.63,-1.53,8.80,-22.14,-9.13,-62.60
161,0,0,0,0,0,2020,8,2,0,2,43,0,0,0,4.63,3.79,5.00,5.00,17.54,7.72,28.10,32.53,27.90,987.35,-3.67,-1.53,8.68,-22.61,-9.22,-62.89
162,0,0,0,0,0,2020,8,2,0,2,44,0,0,0,4.65,3.80,5.00,5.00,16.96,7.33,28.13,32.51,27.86,987.45,-3.71,-1.57,8.80,-22.55,-9.33,-62.99
163,0,0,0,0,0,2020,8,2,0,2,45,0,0,0,4.61,3.79,5.00,5.00,17.64,7.84,28.14,32.57,27.88,987.46,-3.67,-1.57,8.72,-22.51,-9.41,-62.57
164,0,0,0,0,0,2020,8,2,0,2,46,0,0,0,4.65,3.80,5.00,5.00,17.05,7.37,28.13,32.55,27.87,987.30,-3.67,-1.53,8.83,-22.27,-9.08,-63.00
165,0,0,0,0,0,2020,8,2,0,2,47,0,0,0,4.63,3.79,5.00,5.00,17.79,7.89,28.13,32.53,27.88,987.46,-3.67,-1.53,8.76,-22.44,-9.15,-62.25
166,0,0,0,0,0,2020,8,2,0,2,48,0,0,0,4.64,3.80,5.00,5.00,17.15,7.34,28.14,32.59,27.89,987.42,-3.67,-1.57,8.83,-22.25,-9.31,-62.97
167,0,0,0,0,0,2020,8,2,0,2,49,0,0,0,4.64,3.79,5.00,5.00,17.96,7.79,28.13,32.56,27.90,987.20,-3.63,-1.53,8.72,-22.31,-9.20,-62.23
168,0,0,0,0,0,2020,8,2,0,2,50,0,0,0,4.64,3.80,5.00,5.00,17.23,6.89,28.15,32.59,27.88,987.48,-3.63,-1.53,8.83,-22.06,-9.10,-63.39
169,0,0,0,0,0,2020,8,2,0,2,51,0,0,0,4.64,3.79,5.00,5.00,17.47,8.73,28.15,32.57,27.91,987.24,-3.67,-1.68,8.83,-22.21,-9.98,-62.29
170,0,0,0,0,0,2020,8,2,0,2,52,0,0,0,4.64,3.80,5.00,5.00,17.14,7.38,28.16,32.62,27.91,987.47,-3.67,-1.57,8.87,-22.17,-9.27,-63.23
171,0,0,0,0,0,2020,8,2,0,2,53,0,0,0,4.64,3.79,5.00,5.00,17.97,7.93,28.17,32.62,27.91,987.52,-3.67,-1.57,8.80,-22.34,-9.34,-62.72
172,0,0,0,0,0,2020,8,2,0,2,54,0,0,0,4.65,3.80,5.00,5.00,17.43,7.33,28.16,32.59,27.92,987.51,-3.67,-1.49,8.76,-22.45,-8.93,-62.67
173,0,0,0,0,0,2020,8,2,0,2,55,0,0,0,4.64,3.79,5.00,5.00,17.46,7.77,28.19,32.66,27.91,987.40,-3.67,-1.61,8.83,-22.24,-9.53,-61.92
174,0,0,0,0,0,2020,8,2,0,2,56,0,0,0,4.65,3.80,5.00,5.00,17.13,7.70,28.18,32.63,27.93,987.42,-3.67,-1.45,8.72,-22.55,-8.73,-64.08
175,0,0,0,0,0,2020,8,2,0,2,57,0,0,0,4.64,3.79,5.00,5.00,17.79,8.18,28.19,32.61,27.95,987.41,-3.63,-1.49,8.72,-22.33,-8.97,-62.22
