Packet Number,SIV,FixType,Latitude,Longitude,Altitude,Year,Month,Day,Hour,Min,Sec,NNV,NEV,NDV,Battery,3v3 Supply,5v Supply,Radio Supply,Analog Internal,Analog External,Altimeter Temp,Digital Internal,Digital External,Pressure,Accel A,Accel Y,Accel Z,Pitch,Roll,Yaw
0,0,0,0,0,0,2020,8,2,0,0,2,0,0,0,4.67,3.84,5.00,5.00,-3.76,-3.65,19.72,20.21,19.84,983.69,0.84,-0.57,8.76,5.48,-3.73,-137.72
1,0,0,0,0,0,2020,8,2,0,0,3,0,0,0,4.67,3.82,5.00,5.00,-2.88,-3.21,19.72,20.27,19.85,983.64,2.45,0.04,7.53,18.00,0.28,-152.26
2,0,0,0,0,0,2020,8,2,0,0,4,0,0,0,4.64,3.84,5.00,5.00,-3.65,-3.70,19.72,20.30,19.84,983.79,6.77,1.26,7.96,40.05,6.89,-159.18
3,0,0,0,0,0,2020,8,2,0,0,5,0,0,0,4.66,3.82,5.00,5.00,-2.88,-2.89,19.71,20.24,19.80,983.64,7.46,-0.46,4.05,61.32,-3.09,-151.67
4,0,0,0,0,0,2020,8,2,0,0,6,0,0,0,4.67,3.84,5.00,5.00,-3.55,-3.54,19.69,20.27,19.80,983.61,5.35,-1.76,7.65,34.30,-10.67,-157.15
5,0,0,0,0,0,2020,8,2,0,0,7,0,0,0,4.65,3.82,5.00,5.00,-2.77,-2.99,19.68,20.30,19.79,983.61,4.09,-3.29,8.03,25.24,-20.05,-152.05
6,0,0,0,0,0,2020,8,2,0,0,8,0,0,0,4.66,3.84,5.00,5.00,-3.36,-3.91,19.67,20.33,19.80,983.72,3.98,-4.59,7.57,24.19,-28.22,-151.68
7,0,0,0,0,0,2020,8,2,0,0,9,0,0,0,4.66,3.82,5.00,5.00,-2.60,-3.23,19.66,20.39,19.79,983.55,4.90,-5.05,6.88,29.83,-30.86,-154.50
8,0,0,0,0,0,2020,8,2,0,0,10,0,0,0,4.66,3.83,5.00,5.00,-3.18,-3.71,19.65,20.38,19.77,983.71,3.02,-3.33,8.45,18.40,-20.34,-149.50
9,0,0,0,0,0,2020,8,2,0,0,11,0,0,0,4.66,3.82,5.00,5.00,-2.22,-3.11,19.65,20.43,19.77,983.71,3.98,-0.50,6.81,30.23,-3.61,-153.66
10,0,0,0,0,0,2020,8,2,0,0,12,0,0,0,4.67,3.83,5.00,5.00,-3.14,-3.79,19.63,20.43,19.75,983.56,-0.11,8.41,1.26,-0.77,81.43,137.92
11,0,0,0,0,0,2020,8,2,0,0,13,0,0,0,4.65,3.82,5.00,5.00,-2.09,-3.04,19.64,20.49,19.73,983.64,8.45,5.58,-1.11,56.04,33.23,173.85
12,0,0,0,0,0,2020,8,2,0,0,14,0,0,0,4.66,3.83,5.00,5.00,-2.54,-3.64,19.64,20.59,19.76,983.58,3.56,10.36,0.38,18.93,70.96,-172.44
13,0,0,0,0,0,2020,8,2,0,0,15,0,0,0,4.65,3.82,5.00,5.00,-1.85,-2.77,19.61,20.57,19.72,983.81,4.51,5.81,-0.15,37.81,52.16,-168.99
14,0,0,0,0,0,2020,8,2,0,0,16,0,0,0,4.66,3.83,5.00,5.00,-2.66,-3.94,19.61,20.61,19.71,983.86,5.74,1.57,2.45,63.13,14.11,-114.37
15,0,0,0,0,0,2020,8,2,0,0,17,0,0,0,4.64,3.82,5.00,5.00,-1.74,-3.03,19.60,20.65,19.72,983.81,-7.99,11.13,1.57,-35.42,53.80,171.02
16,0,0,0,0,0,2020,8,2,0,0,18,0,0,0,4.66,3.83,5.00,5.00,-2.26,-3.53,19.59,20.70,19.70,983.86,-4.93,7.61,0.73,-32.83,56.77,-162.05
17,0,0,0,0,0,2020,8,2,0,0,19,0,0,0,4.66,3.82,5.00,5.00,-1.37,-2.85,19.59,20.73,19.68,984.13,0.42,2.22,10.75,2.20,11.65,-141.39
18,0,0,0,0,0,2020,8,2,0,0,20,0,0,0,4.66,3.83,5.00,5.00,-2.07,-3.72,19.57,20.75,19.68,983.82,3.44,1.53,8.80,21.08,9.20,-139.38
19,0,0,0,0,0,2020,8,2,0,0,21,0,0,0,4.57,3.82,5.00,5.00,-1.37,-2.81,19.57,20.73,19.66,983.90,-0.23,1.99,8.57,-1.49,13.06,-126.46
20,0,0,0,0,0,2020,8,2,0,0,22,0,0,0,4.65,3.83,5.00,5.00,-1.77,-3.72,19.57,20.84,19.66,983.96,-4.90,10.67,4.51,-22.91,58.04,160.48
21,0,0,0,0,0,2020,8,2,0,0,23,0,0,0,4.65,3.82,5.00,5.00,-1.22,-3.00,19.57,20.88,19.63,983.93,-4.13,5.51,1.84,-35.43,50.62,161.60
22,0,0,0,0,0,2020,8,2,0,0,24,0,0,0,4.65,3.83,5.00,5.00,-1.53,-3.61,19.56,20.88,19.66,983.83,-0.61,-1.38,8.76,-3.95,-8.91,-122.71
23,0,0,0,0,0,2020,8,2,0,0,25,0,0,0,4.64,3.82,5.00,5.00,-0.92,-3.21,19.55,20.92,19.61,983.95,0.69,-2.37,9.18,4.15,-14.45,-126.46
24,0,0,0,0,0,2020,8,2,0,0,26,0,0,0,4.65,3.83,5.00,5.00,-1.48,-3.57,19.54,20.95,19.59,983.83,0.65,-2.37,9.18,3.92,-14.45,-126.43
25,0,0,0,0,0,2020,8,2,0,0,27,0,0,0,4.65,3.81,5.00,5.00,-0.62,-2.93,19.53,20.97,19.58,983.78,0.65,-2.37,9.26,3.89,-14.34,-126.46
26,0,0,0,0,0,2020,8,2,0,0,28,0,0,0,4.66,3.83,5.00,5.00,-1.04,-3.51,19.53,21.04,19.59,983.84,0.65,-2.37,9.33,3.86,-14.22,-126.67
27,0,0,0,0,0,2020,8,2,0,0,29,0,0,0,4.65,3.82,5.00,5.00,-0.53,-3.05,19.51,21.07,19.59,983.94,0.61,-2.41,9.22,3.68,-14.62,-126.46
28,0,0,0,0,0,2020,8,2,0,0,30,0,0,0,4.66,3.83,5.00,5.00,-1.04,-3.65,19.52,21.13,19.59,983.88,0.50,-2.33,9.06,3.04,-14.41,-125.80
29,0,0,0,0,0,2020,8,2,0,0,31,0,0,0,4.65,3.81,5.00,5.00,-0.11,-2.95,19.52,21.15,19.55,983.89,0.69,-2.41,9.18,4.15,-14.67,-127.08
30,0,0,0,0,0,2020,8,2,0,0,32,0,0,0,4.66,3.83,5.00,5.00,-0.56,-3.54,19.50,21.14,19.55,983.99,0.65,-2.33,8.99,4.01,-14.52,-126.12
31,0,0,0,0,0,2020,8,2,0,0,33,0,0,0,4.65,3.81,5.00,5.00,-0.13,-3.00,19.50,21.23,19.53,983.73,0.65,-2.29,9.22,3.92,-13.95,-126.20
32,0,0,0,0,0,2020,8,4,22,23,16,0,0,0,4.66,3.83,5.00,5.00,-0.46,-3.61,19.49,21.24,19.53,983.90,0.65,-2.37,9.22,3.91,-14.39,-126.61
33,0,0,0,0,0,2020,8,4,22,23,17,0,0,0,4.63,3.81,5.00,5.00,0.13,-2.84,19.50,21.24,19.54,983.95,0.69,-2.33,9.26,4.13,-14.11,-126.15
34,0,0,0,0,0,2020,8,4,22,23,18,0,0,0,4.65,3.83,5.00,5.00,-0.36,-3.49,19.49,21.30,19.52,983.89,0.65,-2.33,9.22,3.91,-14.17,-126.38
35,0,0,0,0,0,2020,8,4,22,23,19,0,0,0,4.64,3.81,5.00,5.00,0.31,-2.93,19.49,21.32,19.53,983.98,0.65,-2.45,9.29,3.87,-14.72,-126.30
36,0,0,0,0,0,2023,11,28,22,23,20,0,0,0,4.65,3.83,5.00,5.00,-0.10,-3.64,19.48,21.36,19.52,983.93,0.69,-2.29,9.03,4.23,-14.22,-127.21
37,0,0,0,0,0,2023,11,28,22,23,21,0,0,0,4.65,3.81,5.00,5.00,0.48,-3.02,19.47,21.38,19.52,983.93,0.65,-2.37,9.14,3.94,-14.51,-126.20
38,0,0,0,0,0,2023,11,28,22,23,22,0,0,0,4.65,3.83,5.00,5.00,-0.16,-3.51,19.45,21.34,19.48,983.91,0.61,-2.37,9.26,3.66,-14.34,-126.53
39,0,0,0,0,0,2023,11,28,22,23,23,0,0,0,4.64,3.81,5.00,5.00,0.79,-3.05,19.45,21.45,19.46,983.88,0.65,-2.41,9.18,3.92,-14.67,-126.45
40,0,0,0,0,0,2023,11,28,22,23,24,0,0,0,4.65,3.83,5.00,5.00,0.23,-4.35,19.45,21.48,19.45,983.90,0.69,-2.26,9.26,4.13,-13.67,-126.02
41,0,0,0,0,0,2023,11,28,22,23,25,0,0,0,4.64,3.81,5.00,5.00,0.83,-2.97,19.45,21.47,19.46,983.85,0.73,-2.33,9.10,4.42,-14.33,-126.72
42,0,0,0,0,0,2023,11,28,22,23,26,0,0,0,4.65,3.83,5.00,5.00,0.27,-3.51,19.44,21.49,19.48,983.90,0.69,-2.37,9.26,4.12,-14.33,-126.94
43,0,0,0,0,0,2023,11,28,22,23,27,0,0,0,4.64,3.81,5.00,5.00,1.12,-2.96,19.42,21.55,19.43,983.86,0.65,-2.37,9.26,3.89,-14.34,-125.24
44,0,0,0,0,0,2023,11,28,22,23,28,0,0,0,4.65,3.83,5.00,5.00,0.55,-3.52,19.42,21.59,19.45,983.90,0.73,-2.33,9.22,4.37,-14.16,-125.95
45,0,0,0,0,0,2023,11,28,22,23,29,0,0,0,4.64,3.81,5.00,5.00,1.18,-2.89,19.41,21.61,19.44,983.78,0.65,-2.33,9.18,3.93,-14.23,-126.54
46,0,0,0,0,0,2023,11,28,22,23,30,0,0,0,4.65,3.83,5.00,5.00,0.76,-3.58,19.41,21.67,19.42,983.89,0.69,-2.33,9.22,4.14,-14.17,-126.47
47,0,0,0,0,0,2023,11,28,22,23,31,0,0,0,4.65,3.81,5.00,5.00,1.55,-3.17,19.41,21.65,19.44,983.99,0.69,-2.37,9.22,4.14,-14.39,-126.74
48,0,0,0,0,0,2023,11,28,22,23,32,0,0,0,4.65,3.83,5.00,5.00,0.93,-3.48,19.40,21.67,19.42,983.91,0.73,-2.37,9.26,4.35,-14.33,-126.80
49,0,0,0,0,0,2023,11,28,22,23,33,0,0,0,4.64,3.81,5.00,5.00,1.55,-2.88,19.39,21.69,19.40,983.71,0.65,-2.37,9.22,3.91,-14.39,-126.51
50,0,0,0,0,0,2023,11,28,22,23,34,0,0,0,4.65,3.82,5.00,5.00,1.02,-3.67,19.39,21.77,19.36,983.76,0.65,-2.29,9.18,3.93,-14.00,-126.42
51,0,0,0,0,0,2023,11,28,22,23,35,0,0,0,4.63,3.81,5.00,5.00,1.52,-2.98,19.37,21.77,19.37,983.85,0.65,-2.29,9.22,3.92,-13.95,-126.29
52,0,0,0,0,0,2023,11,28,22,23,36,0,0,0,4.65,3.82,5.00,5.00,1.11,-3.58,19.38,21.81,19.37,983.83,0.65,-2.41,9.22,3.90,-14.62,-126.42
53,0,0,0,0,0,2023,11,28,22,23,37,0,0,0,4.63,3.81,5.00,5.00,1.79,-3.08,19.37,21.83,19.36,983.94,0.61,-2.33,9.26,3.67,-14.12,-125.98
54,0,0,0,0,0,2023,11,28,22,23,38,0,0,0,4.65,3.82,5.00,5.00,1.28,-3.53,19.36,21.89,19.38,983.92,0.73,-2.41,9.18,4.38,-14.66,-126.44
55,0,0,0,0,0,2023,11,28,22,23,39,0,0,0,4.65,3.81,5.00,5.00,2.01,-3.07,19.36,21.88,19.34,984.01,0.65,-2.33,9.22,3.91,-14.17,-126.79
56,0,0,0,0,0,2023,11,28,22,23,40,0,0,0,4.64,3.82,5.00,5.00,1.60,-3.63,19.35,21.93,19.32,983.83,0.76,-2.33,9.14,4.64,-14.27,-126.71
57,0,0,0,0,0,2023,11,28,22,23,41,0,0,0,4.64,3.81,5.00,5.00,1.53,-2.99,19.34,21.98,19.31,983.81,0.65,-2.37,9.14,3.94,-14.51,-126.07
58,0,0,0,0,0,2023,11,28,22,23,42,0,0,0,4.64,3.82,5.00,5.00,1.66,-3.76,19.33,21.96,19.30,983.90,0.73,-2.41,9.26,4.34,-14.55,-126.61
59,0,0,0,0,0,2023,11,28,22,23,43,0,0,0,4.64,3.81,5.00,5.00,2.31,-3.32,19.34,22.02,19.33,983.94,0.65,-2.29,9.22,3.92,-13.95,-126.49
60,0,0,0,0,0,2023,11,28,22,23,44,0,0,0,4.65,3.82,5.00,5.00,1.51,-3.58,19.32,22.05,19.30,983.93,0.61,-2.33,9.14,3.71,-14.29,-125.73
61,0,0,0,0,0,2023,11,28,22,23,45,0,0,0,4.64,3.81,5.00,5.00,2.50,-3.03,19.31,22.11,19.30,983.91,0.69,-2.29,8.95,4.26,-14.34,-126.45
62,0,0,0,0,0,2023,11,28,22,23,46,0,0,0,4.65,3.82,5.00,5.00,2.01,-3.75,19.31,22.08,19.30,983.79,0.69,-2.37,9.22,4.14,-14.39,-126.80
63,0,0,0,0,0,2023,11,28,22,23,47,0,0,0,4.64,3.81,5.00,5.00,2.51,-3.78,19.31,22.09,19.27,984.02,0.65,-2.33,9.26,3.90,-14.11,-126.60
64,0,0,0,0,0,2023,11,28,22,23,48,0,0,0,4.65,3.82,5.00,5.00,2.04,-3.82,19.31,22.16,19.28,983.96,0.57,-2.29,9.26,3.44,-13.90,-126.22
65,0,0,0,0,0,2023,11,28,22,23,49,0,0,0,4.64,3.81,5.00,5.00,2.77,-2.95,19.31,22.17,19.24,983.90,0.65,-2.29,9.33,3.87,-13.78,-126.04
66,0,0,0,0,0,2023,11,28,22,23,50,0,0,0,4.63,3.82,5.00,5.00,2.23,-3.69,19.30,22.21,19.23,983.72,0.88,-2.37,9.33,5.22,-14.20,-127.05
67,0,0,0,0,0,2023,11,28,22,23,51,0,0,0,4.64,3.81,5.00,5.00,2.98,-3.03,19.30,22.22,19.25,983.89,0.69,-2.33,9.22,4.14,-14.17,-126.54
68,0,0,0,0,0,2023,11,28,22,23,52,0,0,0,4.65,3.82,5.00,5.00,2.22,-3.65,19.28,22.21,19.25,983.95,0.69,-2.33,9.26,4.13,-14.11,-126.78
69,0,0,0,0,0,2023,11,28,22,23,53,0,0,0,4.63,3.81,5.00,5.00,2.93,-2.93,19.29,22.25,19.22,983.88,0.65,-2.41,9.18,3.92,-14.67,-126.96
70,0,0,0,0,0,2023,11,28,22,23,54,0,0,0,4.64,3.82,5.00,5.00,2.21,-3.69,19.27,22.30,19.22,983.91,0.69,-2.41,9.14,4.17,-14.73,-126.95
71,0,0,0,0,0,2023,11,28,22,23,55,0,0,0,4.65,3.81,5.00,5.00,3.00,-3.15,19.28,22.33,19.23,983.96,0.65,-2.29,9.18,3.93,-14.00,-126.32
72,0,0,0,0,0,2023,11,28,22,23,56,0,0,0,4.64,3.82,5.00,5.00,2.56,-3.51,19.26,22.32,19.17,983.80,0.80,-2.41,9.06,4.89,-14.83,-127.51
73,0,0,0,0,0,2023,11,28,22,23,57,0,0,0,4.62,3.81,5.00,5.00,3.28,-3.14,19.27,22.35,19.20,983.99,0.69,-2.37,9.26,4.12,-14.33,-126.50
74,0,0,0,0,0,2023,11,28,22,23,58,0,0,0,4.65,3.82,5.00,5.00,2.61,-3.68,19.25,22.41,19.18,983.97,0.65,-2.33,9.26,3.90,-14.11,-125.74
75,0,0,0,0,0,2023,11,28,22,23,59,0,0,0,4.64,3.81,5.00,5.00,3.19,-3.30,19.25,22.38,19.16,983.97,0.65,-2.33,9.22,3.91,-14.17,-126.80
76,0,0,0,0,0,2023,11,28,22,24,0,0,0,0,4.64,3.82,5.00,5.00,2.72,-3.67,19.23,22.42,19.18,983.90,0.69,-2.37,9.26,4.12,-14.33,-126.48
77,0,0,0,0,0,2023,11,28,22,24,1,0,0,0,4.64,3.81,5.00,5.00,3.21,-3.25,19.22,22.45,19.17,983.91,0.88,-2.37,9.29,5.24,-14.25,-127.16
78,0,0,0,0,0,2023,11,28,22,24,2,0,0,0,4.64,3.82,5.00,5.00,3.21,-3.66,19.23,22.48,19.13,983.83,0.73,-2.33,9.22,4.37,-14.16,-126.40
79,0,0,0,0,0,2023,11,28,22,24,3,0,0,0,4.64,3.81,5.00,5.00,3.31,-3.13,19.23,22.48,19.14,984.03,0.69,-2.18,9.22,4.16,-13.27,-126.36
80,0,0,0,0,0,2023,11,28,22,24,4,0,0,0,4.64,3.82,5.00,5.00,3.08,-4.35,19.22,22.50,19.13,983.79,0.65,-2.37,9.29,3.88,-14.28,-126.21
81,0,0,0,0,0,2023,11,28,22,24,5,0,0,0,4.63,3.81,5.00,5.00,3.38,-3.23,19.22,22.52,19.09,984.02,0.69,-2.37,9.18,4.15,-14.45,-126.88
82,0,0,0,0,0,2023,11,28,22,24,6,0,0,0,4.64,3.82,5.00,5.00,3.28,-3.56,19.20,22.59,19.10,983.80,0.69,-2.37,9.22,4.14,-14.39,-126.70
83,0,0,0,0,0,2023,11,28,22,24,7,0,0,0,4.62,3.81,5.00,5.00,3.75,-2.94,19.19,22.59,19.09,983.87,0.69,-2.37,9.22,4.14,-14.39,-126.35
84,0,0,0,0,0,2023,11,28,22,24,8,0,0,0,4.64,3.82,5.00,5.00,3.13,-3.65,19.19,22.60,19.06,983.85,0.69,-2.33,9.22,4.14,-14.17,-126.25
85,0,0,0,0,0,2023,11,28,22,24,9,0,0,0,4.64,3.81,5.00,5.00,3.66,-3.33,19.18,22.63,19.07,983.83,0.69,-2.37,9.22,4.14,-14.39,-126.66
86,0,0,0,0,0,2023,11,28,22,24,10,0,0,0,4.64,3.82,5.00,5.00,3.21,-3.76,19.17,22.64,19.08,983.76,0.61,-2.33,9.22,3.68,-14.17,-126.22
87,0,0,0,0,0,2023,11,28,22,24,11,0,0,0,4.63,3.81,5.00,5.00,4.00,-2.94,19.18,22.67,19.07,983.86,0.73,-2.37,9.29,4.33,-14.27,-127.07
88,0,0,0,0,0,2023,11,28,22,24,12,0,0,0,4.64,3.82,5.00,5.00,3.24,-3.81,19.17,22.70,19.05,983.90,0.65,-2.37,9.33,3.86,-14.22,-125.63
89,0,0,0,0,0,2023,11,28,22,24,13,0,0,0,4.63,3.81,5.00,5.00,3.81,-3.19,19.15,22.70,19.03,983.79,0.69,-2.37,9.22,4.14,-14.39,-126.77
90,0,0,0,0,0,2023,11,28,22,24,14,0,0,0,4.64,3.82,5.00,5.00,3.56,-3.86,19.15,22.69,19.05,983.95,0.73,-2.37,9.18,4.38,-14.44,-126.38
91,0,0,0,0,0,2023,11,28,22,24,15,0,0,0,4.63,3.81,5.00,5.00,4.26,-2.97,19.15,22.69,19.02,983.75,0.69,-2.37,9.29,4.11,-14.28,-126.78
92,0,0,0,0,0,2023,11,28,22,24,16,0,0,0,4.63,3.82,5.00,5.00,3.66,-3.81,19.14,22.69,19.01,984.07,0.65,-2.26,9.18,3.93,-13.78,-126.04
93,0,0,0,0,0,2023,11,28,22,24,17,0,0,0,4.64,3.81,5.00,5.00,4.01,-3.15,19.13,22.76,19.00,983.91,0.69,-2.26,9.14,4.18,-13.83,-126.23
94,0,0,0,0,0,2023,11,28,22,24,18,0,0,0,4.64,3.82,5.00,5.00,3.55,-3.82,19.14,22.76,18.98,983.86,0.69,-2.37,8.87,4.29,-14.92,-126.54
95,0,0,0,0,0,2023,11,28,22,24,19,0,0,0,4.62,3.81,5.00,5.00,4.12,-3.42,19.12,22.81,19.00,983.86,0.80,-2.37,9.18,4.84,-14.43,-127.43
96,0,0,0,0,0,2023,11,28,22,24,20,0,0,0,4.64,3.82,5.00,5.00,3.56,-3.82,19.12,22.80,18.97,983.98,0.69,-2.37,9.18,4.15,-14.45,-126.89
97,0,0,0,0,0,2023,11,28,22,24,21,0,0,0,4.64,3.81,5.00,5.00,2.36,-3.16,19.11,22.81,18.95,984.03,0.76,-2.37,9.22,4.60,-14.38,-126.76
98,0,0,0,0,0,2023,11,28,22,24,22,0,0,0,4.65,3.82,5.00,5.00,3.78,-3.77,19.09,22.85,18.95,983.90,0.69,-2.22,9.03,4.24,-13.77,-125.87
99,0,0,0,0,0,2023,11,28,22,24,23,0,0,0,4.63,3.81,5.00,5.00,4.42,-3.36,19.09,22.88,18.94,983.81,0.65,-2.37,9.26,3.89,-14.34,-126.75
100,0,0,0,0,0,2023,11,28,22,24,24,0,0,0,4.64,3.82,5.00,5.00,3.34,-4.13,19.10,22.88,18.94,983.87,0.69,-2.37,9.18,4.15,-14.45,-126.44
101,0,0,0,0,0,2023,11,28,22,24,25,0,0,0,4.63,3.81,5.00,5.00,4.39,-3.64,19.09,22.90,18.93,983.90,0.84,-2.37,9.33,4.99,-14.20,-127.05
102,0,0,0,0,0,2023,11,28,22,24,26,0,0,0,4.64,3.82,5.00,5.00,3.85,-3.59,19.06,22.89,18.92,983.84,0.69,-2.37,9.26,4.12,-14.33,-126.56
103,0,0,0,0,0,2023,11,28,22,24,27,0,0,0,4.63,3.81,5.00,5.00,4.65,-3.79,19.08,22.93,18.92,984.02,0.65,-2.33,9.26,3.90,-14.11,-125.92
104,0,0,0,0,0,2023,11,28,22,24,28,0,0,0,4.64,3.82,5.00,5.00,3.95,-3.83,19.07,22.92,18.91,983.79,0.69,-2.33,9.10,4.19,-14.34,-126.87
105,0,0,0,0,0,2023,11,28,22,24,29,0,0,0,4.63,3.80,5.00,5.00,4.89,-3.28,19.06,22.95,18.88,983.89,0.61,-2.37,9.22,3.68,-14.40,-126.38
106,0,0,0,0,0,2023,11,28,22,24,30,0,0,0,4.63,3.82,5.00,5.00,3.99,-3.98,19.06,22.95,18.89,983.85,0.65,-2.37,9.18,3.92,-14.45,-126.62
107,0,0,0,0,0,2023,11,28,22,24,31,0,0,0,4.63,3.81,5.00,5.00,4.74,-3.14,19.05,22.95,18.84,983.71,0.69,-2.33,9.18,4.16,-14.22,-126.38
108,0,0,0,0,0,2023,11,28,22,24,32,0,0,0,4.64,3.82,5.00,5.00,4.26,-3.78,19.05,22.98,18.89,983.81,0.69,-2.33,9.29,4.11,-14.05,-126.40
109,0,0,0,0,0,2023,11,28,22,24,33,0,0,0,4.63,3.81,5.00,5.00,4.57,-3.10,19.04,22.98,18.85,983.83,0.73,-2.33,9.14,4.40,-14.27,-126.66
110,0,0,0,0,0,2023,11,28,22,24,34,0,0,0,4.64,3.82,5.00,5.00,4.21,-3.93,19.03,22.98,18.88,983.87,0.73,-2.33,9.18,4.39,-14.22,-126.52
111,0,0,0,0,0,2023,11,28,22,24,35,0,0,0,4.63,3.81,5.00,5.00,4.73,-3.09,19.01,23.01,18.83,983.82,0.73,-2.29,9.18,4.39,-13.99,-126.62
112,0,0,0,0,0,2023,11,28,22,24,36,0,0,0,4.64,3.82,5.00,5.00,4.36,-4.18,19.02,23.00,18.83,984.00,0.65,-2.37,9.29,3.88,-14.28,-126.60
113,0,0,0,0,0,2023,11,28,22,24,37,0,0,0,4.63,3.80,5.00,5.00,4.98,-3.25,19.01,23.05,18.79,983.78,0.65,-2.33,9.06,3.97,-14.40,-126.59
114,0,0,0,0,0,2023,11,28,22,24,38,0,0,0,4.64,3.82,5.00,5.00,4.31,-4.04,18.99,23.05,18.80,983.90,0.61,-2.41,9.37,3.62,-14.39,-126.55
115,0,0,0,0,0,2023,11,28,22,24,39,0,0,0,4.63,3.81,5.00,5.00,4.70,-3.47,19.00,23.09,18.80,984.05,0.65,-2.33,9.22,3.91,-14.17,-126.89
116,0,0,0,0,0,2023,11,28,22,24,40,0,0,0,4.64,3.82,5.00,5.00,4.06,-4.28,18.99,23.08,18.79,984.02,0.73,-2.33,9.26,4.35,-14.11,-126.18
117,0,0,0,0,0,2023,11,28,22,24,41,0,0,0,4.63,3.81,5.00,5.00,5.33,-3.38,18.98,23.09,18.76,983.94,0.73,-2.37,9.41,4.28,-14.11,-126.67
118,0,0,0,0,0,2023,11,28,22,24,42,0,0,0,4.64,3.82,5.00,5.00,4.41,-4.08,18.97,23.14,18.77,983.97,0.65,-2.41,9.29,3.87,-14.50,-127.11
119,0,0,0,0,0,2023,11,28,22,24,43,0,0,0,4.62,3.81,5.00,5.00,5.03,-3.37,18.97,23.13,18.78,984.03,0.73,-2.37,9.37,4.30,-14.16,-126.22
120,0,0,0,0,0,2023,11,28,22,24,44,0,0,0,4.62,3.82,5.00,5.00,3.22,-4.63,18.94,23.13,18.74,983.79,0.69,-2.37,9.26,4.12,-14.33,-126.40
121,0,0,0,0,0,2023,11,28,22,24,45,0,0,0,4.63,3.81,5.00,5.00,5.24,-3.18,18.95,23.18,18.75,983.81,0.65,-2.33,9.26,3.90,-14.11,-126.76
122,0,0,0,0,0,2023,11,28,22,24,46,0,0,0,4.63,3.82,5.00,5.00,4.43,-4.17,18.94,23.20,18.71,983.93,0.69,-2.37,9.60,3.98,-13.84,-125.90
123,0,0,0,0,0,2023,11,28,22,24,47,0,0,0,4.59,3.81,5.00,5.00,5.03,-3.35,18.91,23.19,18.72,983.79,0.73,-2.22,9.29,4.35,-13.38,-126.78
124,0,0,0,0,0,2023,11,28,22,24,48,0,0,0,4.64,3.82,5.00,5.00,4.48,-3.95,18.92,23.16,18.70,983.83,0.61,-2.37,9.26,3.66,-14.34,-126.26
125,0,0,0,0,0,2023,11,28,22,24,49,0,0,0,4.63,3.80,5.00,5.00,5.22,-3.34,18.91,23.17,18.69,984.04,0.65,-2.37,9.14,3.94,-14.51,-126.33
126,0,0,0,0,0,2023,11,28,22,24,50,0,0,0,4.64,3.82,5.00,5.00,4.34,-4.00,18.91,23.19,18.66,983.84,0.57,-2.33,9.26,3.44,-14.12,-126.23
127,0,0,0,0,0,2023,11,28,22,24,51,0,0,0,4.63,3.81,5.00,5.00,5.13,-3.37,18.91,23.23,18.67,984.00,0.69,-2.37,9.26,4.12,-14.33,-126.64
128,0,0,0,0,0,2023,11,28,22,24,52,0,0,0,4.65,3.82,5.00,5.00,4.68,-4.11,18.88,23.23,18.66,983.80,0.65,-2.37,9.18,3.92,-14.45,-126.50
129,0,0,0,0,0,2023,11,28,22,24,53,0,0,0,4.63,3.81,5.00,5.00,5.29,-3.52,18.89,23.24,18.65,983.95,0.69,-2.33,9.45,4.05,-13.84,-126.83
130,0,0,0,0,0,2023,11,28,22,24,54,0,0,0,4.64,3.82,5.00,5.00,4.73,-4.10,18.88,23.27,18.64,983.85,0.65,-2.37,9.29,3.88,-14.28,-126.46
131,0,0,0,0,0,2023,11,28,22,24,55,0,0,0,4.63,3.80,5.00,5.00,5.40,-3.44,18.88,23.27,18.61,983.72,0.73,-2.37,9.22,4.37,-14.38,-127.48
132,0,0,0,0,0,2023,11,28,22,24,56,0,0,0,4.64,3.82,5.00,5.00,4.87,-4.07,18.86,23.29,18.65,983.97,0.73,-2.37,9.26,4.35,-14.33,-126.47
133,0,0,0,0,0,2023,11,28,22,24,57,0,0,0,4.62,3.80,5.00,5.00,5.27,-3.38,18.87,23.28,18.63,983.77,0.76,-2.37,9.29,4.56,-14.27,-126.80
134,0,0,0,0,0,2023,11,28,22,24,58,0,0,0,4.64,3.82,5.00,5.00,4.81,-4.16,18.85,23.30,18.60,983.86,0.69,-2.37,9.06,4.20,-14.62,-126.98
135,0,0,0,0,0,2023,11,28,22,24,59,0,0,0,4.64,3.81,5.00,5.00,5.38,-3.43,18.83,23.29,18.59,983.96,0.65,-2.41,9.22,3.90,-14.62,-126.30
136,0,0,0,0,0,2023,11,28,22,25,0,0,0,0,4.63,3.82,5.00,5.00,4.77,-4.20,18.83,23.34,18.57,983.75,0.65,-2.37,9.22,3.91,-14.39,-126.20
137,0,0,0,0,0,2023,11,28,22,25,1,0,0,0,4.62,3.81,5.00,5.00,4.42,-4.38,18.82,23.34,18.57,983.96,0.61,-2.37,9.18,3.69,-14.45,-126.40
138,0,0,0,0,0,2023,11,28,22,25,2,0,0,0,4.65,3.82,5.00,5.00,4.75,-4.22,18.83,23.35,18.55,983.87,0.73,-2.37,9.22,4.37,-14.38,-126.83
139,0,0,0,0,0,2023,11,28,22,25,3,0,0,0,4.62,3.81,5.00,5.00,5.25,-3.36,18.81,23.35,18.56,983.88,0.69,-2.33,9.22,4.14,-14.17,-126.42
140,0,0,0,0,0,2023,11,28,22,25,4,0,0,0,4.59,3.82,5.00,5.00,4.68,-4.46,18.81,23.34,18.55,983.88,0.65,-2.45,9.41,3.83,-14.55,-126.54
141,0,0,0,0,0,2023,11,28,22,25,5,0,0,0,4.63,3.80,5.00,5.00,5.36,-4.13,18.79,23.41,18.55,983.97,0.69,-2.37,9.29,4.11,-14.28,-125.80
142,0,0,0,0,0,2023,11,28,22,25,6,0,0,0,4.63,3.82,5.00,5.00,5.02,-4.21,18.80,23.40,18.48,983.80,0.65,-2.37,9.18,3.92,-14.45,-126.50
143,0,0,0,0,0,2023,11,28,22,25,7,0,0,0,4.64,3.81,5.00,5.00,5.65,-3.64,18.78,23.40,18.51,983.86,0.73,-2.29,9.22,4.37,-13.94,-126.22
144,0,0,0,0,0,2023,11,28,22,25,8,0,0,0,4.62,3.82,5.00,5.00,4.96,-4.23,18.78,23.42,18.50,983.96,0.65,-2.29,9.22,3.92,-13.95,-126.39
145,0,0,0,0,0,2023,11,28,22,25,9,0,0,0,4.63,3.81,5.00,5.00,5.33,-3.65,18.78,23.42,18.51,984.02,0.73,-2.41,9.22,4.36,-14.61,-127.11
146,0,0,0,0,0,2023,11,28,22,25,10,0,0,0,4.62,3.82,5.00,5.00,5.10,-4.37,18.76,23.41,18.48,983.86,0.73,-2.41,9.22,4.36,-14.61,-126.84
147,0,0,0,0,0,2023,11,28,22,25,11,0,0,0,4.63,3.80,5.00,5.00,5.56,-3.52,18.75,23.43,18.46,983.79,0.65,-2.37,9.37,3.85,-14.17,-127.22
148,0,0,0,0,0,2023,11,28,22,25,12,0,0,0,4.63,3.82,5.00,5.00,4.83,-4.15,18.75,23.45,18.45,983.85,0.73,-2.41,9.22,4.36,-14.61,-127.03
149,0,0,0,0,0,2023,11,28,22,25,13,0,0,0,4.64,3.80,5.00,5.00,5.77,-3.41,18.73,23.42,18.45,983.88,0.65,-2.33,9.22,3.91,-14.17,-126.76
150,0,0,0,0,0,2023,11,28,22,25,14,0,0,0,4.64,3.82,5.00,5.00,5.12,-4.28,18.72,23.45,18.44,983.79,0.65,-2.41,9.26,3.89,-14.56,-126.21
151,0,0,0,0,0,2023,11,28,22,25,15,0,0,0,4.63,3.80,5.00,5.00,5.94,-3.72,18.71,23.46,18.46,983.82,0.69,-2.22,9.06,4.22,-13.71,-126.26
152,0,0,0,0,0,2023,11,28,22,25,16,0,0,0,4.64,3.82,5.00,5.00,5.35,-4.36,18.70,23.45,18.41,983.88,0.73,-2.33,9.26,4.35,-14.11,-126.83
153,0,0,0,0,0,2023,11,28,22,25,17,0,0,0,4.63,3.81,5.00,5.00,5.92,-3.41,18.71,23.43,18.41,983.73,0.65,-2.37,9.22,3.91,-14.39,-126.24
154,0,0,0,0,0,2023,11,28,22,25,18,0,0,0,4.63,3.82,5.00,5.00,4.75,-4.22,18.70,23.48,18.38,983.89,0.69,-2.29,9.22,4.15,-13.94,-125.95
155,0,0,0,0,0,2023,11,28,22,25,19,0,0,0,4.63,3.80,5.00,5.00,5.88,-3.68,18.68,23.46,18.39,983.87,0.65,-2.41,9.48,3.80,-14.22,-125.45
156,0,0,0,0,0,2023,11,28,22,25,20,0,0,0,4.63,3.82,5.00,5.00,5.17,-4.44,18.67,23.47,18.38,983.89,0.69,-2.37,9.22,4.14,-14.39,-126.44
157,0,0,0,0,0,2023,11,28,22,25,21,0,0,0,4.60,3.81,5.00,5.00,5.63,-3.60,18.67,23.47,18.38,984.10,0.73,-2.37,9.10,4.42,-14.56,-126.68
158,0,0,0,0,0,2023,11,28,22,25,22,0,0,0,4.64,3.82,5.00,5.00,5.24,-5.54,18.65,23.49,18.33,983.86,0.65,-2.41,9.22,3.90,-14.62,-126.80
159,0,0,0,0,0,2023,11,28,22,25,23,0,0,0,4.63,3.81,5.00,5.00,5.73,-3.71,18.66,23.47,18.33,984.02,0.69,-2.37,8.91,4.27,-14.86,-126.20
160,0,0,0,0,0,2023,11,28,22,25,24,0,0,0,4.64,3.82,5.00,5.00,5.09,-4.54,18.65,23.46,18.33,984.04,0.92,-2.37,9.26,5.49,-14.30,-127.22
161,0,0,0,0,0,2023,11,28,22,25,25,0,0,0,4.62,3.80,5.00,5.00,5.72,-3.68,18.64,23.46,18.29,983.88,0.65,-2.37,9.29,3.88,-14.28,-126.06
162,0,0,0,0,0,2023,11,28,22,25,26,0,0,0,4.64,3.82,5.00,5.00,5.27,-4.27,18.63,23.50,18.30,983.98,0.65,-2.37,9.26,3.89,-14.34,-126.11
163,0,0,0,0,0,2023,11,28,22,25,27,0,0,0,4.57,3.81,5.00,5.00,5.89,-3.84,18.62,23.48,18.28,983.87,0.73,-2.33,9.29,4.34,-14.05,-126.52
164,0,0,0,0,0,2023,11,28,22,25,28,0,0,0,4.64,3.82,5.00,5.00,5.67,-5.68,18.62,23.50,18.28,983.99,0.73,-2.33,9.22,4.37,-14.16,-126.56
165,0,0,0,0,0,2023,11,28,22,25,29,0,0,0,4.62,3.81,5.00,5.00,5.85,-4.07,18.61,23.47,18.27,983.91,0.80,-2.29,9.10,4.89,-14.10,-126.83
166,0,0,0,0,0,2023,11,28,22,25,30,0,0,0,4.63,3.82,5.00,5.00,5.22,-4.43,18.60,23.52,18.29,983.78,0.73,-2.33,9.22,4.37,-14.16,-126.25
167,0,0,0,0,0,2023,11,28,22,25,31,0,0,0,4.63,3.81,5.00,5.00,5.82,-3.79,18.59,23.52,18.25,983.82,0.65,-2.37,9.22,3.91,-14.39,-126.75
168,0,0,0,0,0,2023,11,28,22,25,32,0,0,0,4.64,3.82,5.00,5.00,5.33,-4.54,18.58,23.52,18.23,983.94,0.61,-2.37,9.22,3.68,-14.40,-126.57
169,0,0,0,0,0,2023,11,28,22,25,33,0,0,0,4.63,3.81,5.00,5.00,5.93,-3.95,18.56,23.48,18.24,983.91,0.73,-2.37,9.26,4.35,-14.33,-126.71
170,0,0,0,0,0,2023,11,28,22,25,34,0,0,0,4.64,3.82,5.00,5.00,5.43,-4.61,18.55,23.53,18.22,983.81,0.65,-2.33,9.26,3.90,-14.11,-126.45
171,0,0,0,0,0,2023,11,28,22,25,35,0,0,0,4.63,3.81,5.00,5.00,6.08,-3.86,18.56,23.51,18.20,983.92,0.73,-2.37,9.22,4.37,-14.38,-126.80
172,0,0,0,0,0,2023,11,28,22,25,36,0,0,0,4.64,3.82,5.00,5.00,5.24,-4.35,18.54,23.55,18.20,983.74,0.69,-2.41,9.37,4.07,-14.38,-126.56
173,0,0,0,0,0,2023,11,28,22,25,37,0,0,0,4.63,3.80,5.00,5.00,5.93,-3.93,18.53,23.52,18.20,983.85,0.69,-2.37,9.22,4.14,-14.39,-126.46
174,0,0,0,0,0,2023,11,28,22,25,38,0,0,0,4.64,3.82,5.00,5.00,5.17,-4.56,18.52,23.53,18.18,983.87,0.69,-2.29,9.18,4.16,-14.00,-126.49
175,0,0,0,0,0,2023,11,28,22,25,39,0,0,0,4.63,3.80,5.00,5.00,5.91,-3.77,18.50,23.55,18.19,983.94,0.69,-2.33,9.26,4.13,-14.11,-126.38
176,0,0,0,0,0,2023,11,28,22,25,40,0,0,0,4.64,3.82,5.00,5.00,5.25,-4.63,18.51,23.55,18.16,983.99,0.65,-2.37,9.45,3.82,-14.06,-126.32
177,0,0,0,0,0,2023,11,28,22,25,41,0,0,0,4.62,3.81,5.00,5.00,5.87,-3.88,18.51,23.55,18.15,984.00,0.80,-2.33,9.26,4.81,-14.10,-126.76
178,0,0,0,0,0,2023,11,28,22,25,42,0,0,0,4.64,3.82,5.00,5.00,5.31,-4.48,18.48,23.58,18.13,983.89,0.69,-2.33,9.41,4.06,-13.89,-126.01
179,0,0,0,0,0,2023,11,28,22,25,43,0,0,0,4.63,3.81,5.00,5.00,5.62,-4.00,18.47,23.53,18.14,983.86,0.69,-2.41,9.33,4.09,-14.44,-126.40
180,0,0,0,0,0,2023,11,28,22,25,44,0,0,0,4.63,3.82,5.00,5.00,5.33,-4.61,18.46,23.57,18.13,984.11,0.65,-2.37,8.91,4.03,-14.86,-126.98
181,0,0,0,0,0,2023,11,28,22,25,45,0,0,0,4.63,3.81,5.00,5.00,5.90,-5.48,18.45,23.58,18.09,983.99,0.73,-2.33,9.29,4.34,-14.05,-126.93
182,0,0,0,0,0,2023,11,28,22,25,46,0,0,0,4.63,3.82,5.00,5.00,5.38,-4.71,18.45,23.55,18.11,983.76,0.61,-2.33,9.29,3.65,-14.06,-126.30
183,0,0,0,0,0,2023,11,28,22,25,47,0,0,0,4.63,3.81,5.00,5.00,5.94,-4.14,18.44,23.51,18.09,984.06,0.73,-2.33,9.26,4.35,-14.11,-126.23
184,0,0,0,0,0,2023,11,28,22,25,48,0,0,0,4.63,3.82,5.00,5.00,5.44,-4.52,18.43,23.52,18.09,983.97,0.80,-2.33,9.26,4.81,-14.10,-126.82
185,0,0,0,0,0,2023,11,28,22,25,49,0,0,0,4.62,3.81,5.00,5.00,5.98,-3.97,18.42,23.51,18.04,983.89,0.69,-2.33,9.26,4.13,-14.11,-126.47
186,0,0,0,0,0,2023,11,28,22,25,50,0,0,0,4.63,3.82,5.00,5.00,5.39,-4.77,18.42,23.55,18.02,983.90,0.69,-2.37,9.10,4.19,-14.56,-127.29
187,0,0,0,0,0,2023,11,28,22,25,51,0,0,0,4.63,3.81,5.00,5.00,5.88,-4.17,18.40,23.55,18.02,983.85,0.73,-2.37,9.26,4.35,-14.33,-126.92
188,0,0,0,0,0,2023,11,28,22,25,52,0,0,0,4.64,3.82,5.00,5.00,5.51,-4.66,18.38,23.55,18.02,983.94,0.73,-2.29,9.22,4.37,-13.94,-126.67
189,0,0,0,0,0,2023,11,28,22,25,53,0,0,0,4.62,3.80,5.00,5.00,5.98,-4.14,18.38,23.58,18.03,983.88,0.69,-2.37,9.22,4.14,-14.39,-126.66
190,0,0,0,0,0,2023,11,28,22,25,54,0,0,0,4.64,3.82,5.00,5.00,5.22,-4.86,18.36,23.59,18.03,984.05,0.76,-2.29,9.18,4.62,-13.99,-126.78
191,0,0,0,0,0,2023,11,28,22,25,55,0,0,0,4.62,3.80,5.00,5.00,6.08,-4.21,18.36,23.53,18.00,983.91,0.69,-2.37,9.18,4.15,-14.45,-126.92
192,0,0,0,0,0,2023,11,28,22,25,56,0,0,0,4.63,3.82,5.00,5.00,5.42,-4.95,18.35,23.59,18.01,983.93,0.73,-2.33,9.06,4.44,-14.39,-126.78
193,0,0,0,0,0,2023,11,28,22,25,57,0,0,0,4.62,3.80,5.00,5.00,6.13,-3.91,18.34,23.56,17.99,983.81,0.65,-2.37,9.22,3.91,-14.39,-126.39
194,0,0,0,0,0,2023,11,28,22,25,58,0,0,0,4.63,3.82,5.00,5.00,4.29,-4.83,18.33,23.58,17.98,984.08,0.69,-2.37,9.18,4.15,-14.45,-126.40
195,0,0,0,0,0,2023,11,28,22,25,59,0,0,0,4.63,3.80,5.00,5.00,6.31,-4.04,18.31,23.59,17.95,983.97,0.73,-2.37,9.26,4.35,-14.33,-126.93
196,0,0,605583843,-768233549,16185067,2023,11,28,22,26,0,0,0,0,4.63,3.82,5.00,5.00,5.41,-4.68,18.33,23.59,17.95,984.07,0.76,-2.33,9.22,4.60,-14.16,-126.96
197,0,0,605641235,-778719811,16186909,2023,11,28,22,26,1,0,0,0,4.58,3.80,5.00,5.00,6.26,-4.08,18.30,23.62,17.93,983.81,0.69,-2.37,9.26,4.12,-14.33,-126.80
198,0,0,605647383,-780195797,16187106,2023,11,28,22,26,2,0,0,0,4.64,3.81,5.00,5.00,5.36,-5.42,18.30,23.58,17.91,983.83,0.73,-2.37,9.22,4.37,-14.38,-126.55
199,0,0,605652717,-778587267,16187277,2023,11,28,22,26,3,0,0,0,4.63,3.81,5.00,5.00,5.78,-4.26,18.28,23.59,17.89,983.90,0.65,-2.33,9.14,3.94,-14.28,-126.38
200,0,0,605612884,-790573496,16185999,2023,11,28,22,26,4,0,0,0,4.63,3.81,5.00,5.00,5.45,-4.74,18.28,23.55,17.88,983.81,0.73,-2.41,9.22,4.36,-14.61,-127.05
201,0,0,605617913,-790506922,16186160,2023,11,28,22,26,5,0,0,0,4.63,3.80,5.00,5.00,6.06,-4.24,18.27,23.59,17.88,984.02,0.69,-2.37,9.18,4.15,-14.45,-126.93
202,0,0,605622934,-790440346,16186322,2023,11,28,22,26,6,0,0,0,4.63,3.82,5.00,5.00,5.45,-4.98,18.25,23.55,17.88,984.12,0.69,-2.37,9.26,4.12,-14.33,-126.30
203,0,0,605627945,-790373769,16186482,2023,11,28,22,26,7,0,0,0,4.62,3.80,5.00,5.00,5.99,-4.28,18.24,23.59,17.84,983.99,0.69,-2.45,9.48,4.02,-14.43,-126.41
204,0,0,605632947,-790307190,16186643,2023,11,28,22,26,8,0,0,0,4.64,3.82,5.00,5.00,5.43,-4.90,18.22,23.62,17.86,983.92,0.69,-2.33,9.26,4.13,-14.11,-126.46
205,0,0,605637941,-790240610,16186803,2023,11,28,22,26,9,0,0,0,4.64,3.81,5.00,5.00,6.12,-4.21,18.22,23.56,17.82,983.84,0.73,-2.29,9.22,4.37,-13.94,-126.57
206,0,0,605642925,-790174028,16186963,2023,11,28,22,26,10,0,0,0,4.64,3.82,5.00,5.00,5.58,-4.98,18.21,23.58,17.79,984.03,0.69,-2.33,9.18,4.16,-14.22,-126.89
207,0,0,605647900,-790107444,16187123,2023,11,28,22,26,11,0,0,0,4.60,3.81,5.00,5.00,6.15,-4.33,18.19,23.60,17.80,983.91,0.65,-2.33,9.33,3.87,-14.00,-126.43
208,0,0,605652867,-790040858,16187282,2023,11,28,22,26,12,0,0,0,4.63,3.82,5.00,5.00,5.47,-4.98,18.19,23.58,17.80,983.85,0.69,-2.37,9.10,4.19,-14.56,-126.88
209,0,0,605487762,-802565544,16181983,2023,11,28,22,26,13,0,0,0,4.63,3.80,5.00,5.00,5.88,-4.63,18.18,23.59,17.77,984.03,0.61,-2.29,9.22,3.69,-13.95,-126.47
210,0,0,605662772,-789907682,16187600,2023,11,28,22,26,14,0,0,0,4.63,3.82,5.00,5.00,5.35,-4.91,18.17,23.59,17.77,983.95,0.69,-2.33,9.45,4.05,-13.84,-126.79
211,0,0,605667711,-789841092,16187758,2023,11,28,22,26,15,0,0,0,4.63,3.80,5.00,5.00,6.20,-4.24,18.16,23.55,17.77,984.04,0.76,-2.41,9.26,4.57,-14.54,-126.88
212,0,0,605500439,-802364695,16182390,2023,11,28,22,26,16,0,0,0,4.63,3.82,5.00,5.00,5.55,-5.27,18.16,23.57,17.74,983.91,0.76,-2.33,9.18,4.62,-14.21,-126.81
213,0,0,605656429,-791857887,16187396,2023,11,28,22,26,17,0,0,0,4.62,3.81,5.00,5.00,6.18,-4.23,18.15,23.59,17.73,983.90,0.65,-2.37,9.26,3.89,-14.34,-126.72
214,0,0,605508845,-802230789,16182660,2023,11,28,22,26,18,0,0,0,4.63,3.82,5.00,5.00,5.64,-4.87,18.13,23.55,17.75,983.88,0.69,-2.29,9.22,4.15,-13.94,-126.20
215,0,0,605513034,-802163835,16182795,2023,11,28,22,26,19,0,0,0,4.62,3.80,5.00,5.00,4.72,-4.77,18.12,23.59,17.73,983.90,0.65,-2.33,9.22,3.91,-14.17,-126.41
216,0,0,605517215,-802096879,16182929,2023,11,28,22,26,20,0,0,0,4.63,3.82,5.00,5.00,5.24,-5.26,18.11,23.53,17.69,984.01,0.73,-2.37,9.18,4.38,-14.44,-127.32
217,0,0,605521386,-802029922,16183063,2023,11,28,22,26,21,0,0,0,4.63,3.80,5.00,5.00,6.09,-4.28,18.09,23.55,17.71,984.02,0.65,-2.37,9.26,3.89,-14.34,-127.21
218,0,0,605525548,-801962964,16183196,2023,11,28,22,26,22,0,0,0,4.60,3.82,5.00,5.00,5.37,-5.12,18.08,23.59,17.70,983.91,0.69,-2.33,9.22,4.14,-14.17,-125.88
219,0,0,605529701,-801896005,16183330,2023,11,28,22,26,23,0,0,0,4.63,3.80,5.00,5.00,6.08,-4.61,18.09,23.59,17.65,984.04,0.69,-2.37,9.29,4.11,-14.28,-125.88
220,0,0,605533845,-801829044,16183463,2023,11,28,22,26,24,0,0,0,4.61,3.82,5.00,5.00,5.44,-5.31,18.06,23.60,17.65,984.01,0.73,-2.37,9.14,4.40,-14.50,-126.79
221,0,0,605537980,-801762083,16183595,2023,11,28,22,26,25,0,0,0,4.61,3.81,5.00,5.00,6.12,-5.30,18.04,23.55,17.63,983.86,0.80,-2.37,9.22,4.82,-14.37,-126.73
222,0,0,605542106,-801695120,16183728,2023,11,28,22,26,26,0,0,0,4.63,3.82,5.00,5.00,5.31,-5.33,18.03,23.55,17.63,983.88,0.65,-2.41,9.52,3.79,-14.17,-125.78
223,0,0,605546223,-801628156,16183860,2023,11,28,22,26,27,0,0,0,4.63,3.81,5.00,5.00,6.15,-4.58,18.03,23.55,17.63,983.80,0.65,-2.33,9.26,3.90,-14.11,-127.39
224,0,0,605550331,-801561191,16183992,2023,11,28,22,26,28,0,0,0,4.64,3.82,5.00,5.00,5.51,-4.91,18.01,23.55,17.59,983.80,0.69,-2.37,9.18,4.15,-14.45,-126.72
225,0,0,605735915,-788908654,16189947,2023,11,28,22,26,29,0,0,0,4.63,3.80,5.00,5.00,6.08,-5.08,18.02,23.52,17.61,983.98,0.69,-2.37,9.22,4.14,-14.39,-127.30
226,0,0,605558519,-801427258,16184254,2023,11,28,22,26,30,0,0,0,4.63,3.82,5.00,5.00,5.47,-5.47,18.00,23.52,17.59,983.77,0.69,-2.41,9.22,4.13,-14.61,-127.19
227,0,0,605562600,-801360289,16184385,2023,11,28,22,26,31,0,0,0,4.62,3.81,5.00,5.00,6.02,-4.66,18.00,23.52,17.57,983.88,0.73,-2.37,9.41,4.28,-14.11,-126.58
228,0,0,605566672,-801293320,16184516,2023,11,28,22,26,32,0,0,0,4.63,3.82,5.00,5.00,5.93,-4.94,17.97,23.54,17.52,983.97,0.73,-2.33,9.18,4.39,-14.22,-127.17
229,0,0,605570734,-801226349,16184646,2023,11,28,22,26,33,0,0,0,4.63,3.81,5.00,5.00,5.77,-4.76,17.97,23.50,17.54,983.99,0.65,-2.33,9.22,3.91,-14.17,-126.34
230,0,0,605574788,-801159377,16184777,2023,11,28,22,26,34,0,0,0,4.64,3.82,5.00,5.00,5.32,-5.24,17.96,23.55,17.52,983.88,0.61,-2.33,9.18,3.70,-14.23,-126.42
231,0,0,605578832,-801092404,16184906,2023,11,28,22,26,35,0,0,0,4.64,3.81,5.00,5.00,5.80,-4.53,17.96,23.51,17.49,984.04,0.69,-2.33,9.37,4.08,-13.95,-126.69
232,0,0,605582867,-801025430,16185036,2023,11,28,22,26,36,0,0,0,4.64,3.82,5.00,5.00,4.54,-5.19,17.93,23.48,17.49,983.91,0.69,-2.33,9.29,4.11,-14.05,-126.13
233,0,0,605586894,-800958454,16185165,2023,11,28,22,26,37,0,0,0,4.62,3.80,5.00,5.00,6.08,-4.49,17.93,23.48,17.48,983.97,0.76,-2.41,9.22,4.59,-14.60,-125.89
234,0,0,605590911,-800891478,16185294,2023,11,28,22,26,38,0,0,0,4.63,3.82,5.00,5.00,5.52,-5.28,17.92,23.51,17.47,984.17,0.73,-2.29,9.29,4.34,-13.83,-126.43
235,0,0,605594919,-800824500,16185423,2023,11,28,22,26,39,0,0,0,4.63,3.80,5.00,5.00,5.93,-4.74,17.91,23.50,17.43,983.85,0.73,-2.33,9.29,4.34,-14.05,-126.43
236,0,0,605598918,-800757522,16185551,2023,11,28,22,26,40,0,0,0,4.64,3.82,5.00,5.00,5.49,-5.27,17.91,23.48,17.45,984.22,0.65,-2.37,9.14,3.94,-14.51,-126.19
237,0,0,605792971,-788109172,16191777,2023,11,28,22,26,41,0,0,0,4.62,3.80,5.00,5.00,6.10,-4.74,17.88,23.48,17.48,983.74,0.61,-2.37,9.22,3.68,-14.40,-126.53
238,0,0,605866298,-777541893,16194129,2023,11,28,22,26,42,0,0,0,4.63,3.82,5.00,5.00,3.69,-5.46,17.88,23.48,17.42,984.03,0.80,-2.37,9.29,4.79,-14.26,-126.75
239,0,0,605871587,-777475504,16194299,2023,11,28,22,26,43,0,0,0,4.63,3.81,5.00,5.00,6.22,-4.54,17.87,23.46,17.42,984.00,0.73,-2.33,9.18,4.39,-14.22,-126.40
240,0,0,605876867,-777409114,16194468,2023,11,28,22,26,44,0,0,0,4.63,3.82,5.00,5.00,5.49,-5.39,17.87,23.46,17.38,983.91,0.69,-2.37,9.14,4.17,-14.50,-126.66
241,0,0,605882138,-777342722,16194637,2023,11,28,22,26,45,0,0,0,4.57,3.80,5.00,5.00,5.89,-4.68,17.84,23.46,17.38,983.92,0.65,-2.37,9.22,3.91,-14.39,-127.25
242,0,0,605887401,-777276328,16194806,2023,11,28,22,26,46,0,0,0,4.63,3.82,5.00,5.00,5.45,-6.58,17.84,23.44,17.38,984.00,0.73,-2.33,9.26,4.35,-14.11,-127.10
243,0,0,605892654,-777209933,16194974,2023,11,28,22,26,47,0,0,0,4.63,3.81,5.00,5.00,6.03,-4.62,17.83,23.47,17.39,983.98,0.69,-2.37,9.22,4.14,-14.39,-127.05
244,0,0,605897898,-777143535,16195142,2023,11,28,22,26,48,0,0,0,4.63,3.82,5.00,5.00,5.52,-5.42,17.81,23.43,17.35,983.91,0.69,-2.37,9.22,4.14,-14.39,-126.64
245,0,0,605903133,-777077135,16195310,2023,11,28,22,26,49,0,0,0,4.63,3.81,5.00,5.00,6.16,-4.56,17.81,23.44,17.35,983.95,0.73,-2.41,9.26,4.34,-14.55,-127.14
246,0,0,605908359,-777010733,16195478,2023,11,28,22,26,50,0,0,0,4.63,3.81,5.00,5.00,5.41,-5.52,17.80,23.47,17.34,983.99,0.73,-2.37,9.33,4.32,-14.22,-126.43
247,0,0,605913577,-776944330,16195645,2023,11,28,22,26,51,0,0,0,4.62,3.80,5.00,5.00,6.06,-4.77,17.78,23.45,17.33,983.95,0.61,-2.52,9.18,3.68,-15.34,-127.10
248,0,0,605918785,-776877924,16195812,2023,11,28,22,26,52,0,0,0,4.63,3.82,5.00,5.00,5.41,-5.43,17.77,23.45,17.31,984.01,0.69,-2.37,8.99,4.24,-14.74,-127.55
249,0,0,605908742,-764729562,16195490,2023,11,28,22,26,53,0,0,0,4.64,3.80,5.00,5.00,6.22,-5.00,17.77,23.45,17.27,984.02,0.69,-2.33,9.26,4.13,-14.11,-126.69
250,0,0,605914630,-764663384,16195679,2023,11,28,22,26,54,0,0,0,4.63,3.82,5.00,5.00,5.33,-5.45,17.76,23.48,17.30,983.91,0.80,-2.41,9.26,4.80,-14.54,-127.00
251,0,0,605920510,-764597204,16195867,2023,11,28,22,26,55,0,0,0,4.63,3.81,5.00,5.00,6.11,-4.76,17.74,23.45,17.27,983.89,0.73,-2.33,9.33,4.32,-14.00,-127.00
252,0,0,605926381,-764531022,16196056,2023,11,28,22,26,56,0,0,0,4.62,3.82,5.00,5.00,5.48,-5.40,17.73,23.45,17.26,983.93,0.73,-2.29,9.22,4.37,-13.94,-126.69
253,0,0,605932243,-764464837,16196244,2023,11,28,22,26,57,0,0,0,4.62,3.80,5.00,5.00,5.93,-4.77,17.71,23.44,17.24,984.02,0.69,-2.41,9.56,3.99,-14.11,-126.55
254,0,0,605825033,-752854667,16192805,2023,11,28,22,26,58,0,0,0,4.63,3.82,5.00,5.00,5.58,-5.58,17.72,23.45,17.23,983.94,0.65,-2.37,9.06,3.97,-14.62,-126.45
255,0,0,605831550,-752788648,16193014,2023,11,28,22,26,59,0,0,0,4.63,3.80,5.00,5.00,5.97,-4.57,17.70,23.45,17.20,983.96,0.73,-2.37,9.48,4.25,-14.00,-126.50
256,0,0,605838057,-752722627,16193223,2023,11,28,22,27,0,0,0,0,4.63,3.82,5.00,5.00,5.32,-5.57,17.69,23.45,17.16,984.03,0.73,-2.33,9.18,4.39,-14.22,-125.75
257,0,0,605844556,-752656603,16193432,2023,11,28,22,27,1,0,0,0,4.61,3.80,5.00,5.00,6.01,-4.88,17.67,23.40,17.20,984.10,0.73,-2.33,9.26,4.35,-14.11,-127.01
258,0,0,605851046,-752590577,16193640,2023,11,28,22,27,2,0,0,0,4.61,3.82,5.00,5.00,5.45,-5.76,17.67,23.40,17.22,983.88,0.69,-2.37,9.10,4.19,-14.56,-127.05
259,0,0,605659534,-741491741,16187496,2023,11,28,22,27,3,0,0,0,4.62,3.80,5.00,5.00,6.08,-4.96,17.65,23.39,17.16,984.08,0.73,-2.33,9.22,4.37,-14.16,-126.59
260,0,0,605864000,-752458515,16194055,2023,11,28,22,27,4,0,0,0,4.64,3.82,5.00,5.00,5.27,-5.55,17.63,23.38,17.15,984.02,0.73,-2.33,9.03,4.46,-14.45,-127.18
261,0,0,605870463,-752392480,16194262,2023,11,28,22,27,5,0,0,0,4.62,3.81,5.00,5.00,6.06,-4.91,17.62,23.41,17.15,984.02,0.69,-2.33,9.10,4.19,-14.34,-126.76
262,0,0,605876917,-752326442,16194469,2023,11,28,22,27,6,0,0,0,4.64,3.82,5.00,5.00,5.46,-5.55,17.61,23.41,17.11,983.88,0.65,-2.26,9.14,3.95,-13.83,-126.69
263,0,0,605883363,-752260402,16194676,2023,11,28,22,27,7,0,0,0,4.63,3.81,5.00,5.00,6.02,-4.94,17.61,23.34,17.12,984.01,0.69,-2.29,9.29,4.11,-13.83,-127.11
264,0,0,605889799,-752194359,16194883,2023,11,28,22,27,8,0,0,0,4.59,3.82,5.00,5.00,5.50,-5.73,17.59,23.38,17.09,983.94,0.65,-2.33,9.33,3.87,-14.00,-126.12
265,0,0,605896227,-752128313,16195089,2023,11,28,22,27,9,0,0,0,4.63,3.81,5.00,5.00,6.10,-5.20,17.57,23.38,17.07,983.87,0.73,-2.37,9.22,4.37,-14.38,-127.12
266,0,0,605709183,-741030266,16189089,2023,11,28,22,27,10,0,0,0,4.63,3.82,5.00,5.00,5.19,-5.35,17.56,23.38,17.05,984.04,0.73,-2.45,9.33,4.31,-14.65,-127.38
267,0,0,605909056,-751996213,16195500,2023,11,28,22,27,11,0,0,0,4.63,3.81,5.00,5.00,5.79,-5.25,17.56,23.37,17.07,983.90,0.69,-2.41,9.29,4.10,-14.50,-126.81
268,0,0,605723288,-740898388,16189541,2023,11,28,22,27,12,0,0,0,4.63,3.82,5.00,5.00,5.32,-5.66,17.54,23.35,17.04,983.90,0.65,-2.33,9.22,3.91,-14.17,-127.37
269,0,0,605730327,-740832445,16189767,2023,11,28,22,27,13,0,0,0,4.63,3.81,5.00,5.00,5.96,-5.10,17.52,23.34,17.04,983.83,0.69,-2.41,9.18,4.15,-14.67,-127.14
270,0,0,605737358,-740766498,16189993,2023,11,28,22,27,14,0,0,0,4.63,3.82,5.00,5.00,5.49,-5.94,17.51,23.33,17.04,984.05,0.69,-2.37,9.22,4.14,-14.39,-126.94
271,0,0,605744379,-740700548,16190218,2023,11,28,22,27,15,0,0,0,4.62,3.80,5.00,5.00,6.01,-5.09,17.51,23.30,17.00,984.01,0.69,-2.33,9.22,4.14,-14.17,-127.11
272,0,0,605471051,-729619250,16181447,2023,11,28,22,27,16,0,0,0,4.63,3.82,5.00,5.00,4.33,-5.84,17.49,23.38,16.99,984.18,0.73,-2.37,9.22,4.37,-14.38,-126.90
273,0,0,605478705,-729553361,16181693,2023,11,28,22,27,17,0,0,0,4.61,3.80,5.00,5.00,5.81,-5.15,17.49,23.30,16.98,983.86,0.65,-2.37,9.45,3.82,-14.06,-126.82
274,0,0,639757053,-1029564667,17240134,2023,11,28,22,27,18,0,0,0,4.63,3.82,5.00,5.00,5.44,-5.75,17.47,23.34,16.95,984.05,0.69,-2.33,9.26,4.13,-14.11,-126.69
275,0,0,639700892,-1016838210,17238473,2023,11,28,22,27,19,0,0,0,4.60,3.80,5.00,5.00,5.93,-5.10,17.46,23.31,16.93,983.87,0.73,-2.33,9.37,4.30,-13.94,-126.68
276,0,0,638121167,-1020073931,17191634,2023,11,28,22,27,20,0,0,0,4.63,3.82,5.00,5.00,4.37,-6.03,17.45,23.29,16.92,983.89,0.76,-2.37,9.26,4.58,-14.32,-127.05
277,0,0,638132105,-1019994009,17191959,2023,11,28,22,27,21,0,0,0,4.62,3.80,5.00,5.00,5.93,-4.96,17.43,23.30,16.93,983.91,0.73,-2.33,9.48,4.25,-13.78,-127.01
278,0,0,639735004,-1016598888,17239482,2023,11,28,22,27,22,0,0,0,4.63,3.82,5.00,5.00,4.38,-5.80,17.42,23.31,16.93,983.87,0.73,-2.37,9.18,4.38,-14.44,-126.39
279,0,0,641113821,-1003358894,17280197,2023,11,28,22,27,23,0,0,0,4.62,3.80,5.00,5.00,5.98,-5.14,17.40,23.30,16.92,984.01,0.88,-2.33,9.22,5.29,-14.14,-127.20
280,0,0,639757691,-1016439308,17240153,2023,11,28,22,27,24,0,0,0,4.63,3.82,5.00,5.00,5.37,-5.64,17.40,23.27,16.90,983.89,0.73,-2.33,9.33,4.32,-14.00,-127.33
281,0,0,639769019,-1016359509,17240488,2023,11,28,22,27,25,0,0,0,4.58,3.80,5.00,5.00,6.05,-5.47,17.38,23.27,16.87,984.00,0.73,-2.37,9.22,4.37,-14.38,-127.04
282,0,0,639780336,-1016279704,17240823,2023,11,28,22,27,26,0,0,0,4.63,3.82,5.00,5.00,5.19,-6.41,17.36,23.25,16.86,983.92,0.69,-2.41,9.18,4.15,-14.67,-126.69
283,0,0,638197502,-1019514348,17193902,2023,11,28,22,27,27,0,0,0,4.62,3.80,5.00,5.00,5.83,-5.15,17.37,23.26,16.86,984.02,0.73,-2.33,9.26,4.35,-14.11,-126.53
284,0,0,638208364,-1019434384,17194225,2023,11,28,22,27,28,0,0,0,4.63,3.82,5.00,5.00,5.32,-6.03,17.35,23.23,16.84,983.94,0.73,-2.41,9.18,4.38,-14.66,-127.31
285,0,0,641345082,-1015595666,17287011,2023,11,28,22,27,29,0,0,0,4.57,3.81,5.00,5.00,5.89,-5.32,17.34,23.26,16.80,983.95,0.65,-2.33,9.41,3.84,-13.89,-126.47
286,0,0,639628707,-1006384389,17236337,2023,11,28,22,27,30,0,0,0,4.63,3.82,5.00,5.00,5.19,-6.01,17.33,23.22,16.81,984.14,0.73,-2.41,9.41,4.28,-14.32,-126.35
287,0,0,638240886,-1019194456,17195191,2023,11,28,22,27,31,0,0,0,4.61,3.81,5.00,5.00,5.84,-5.47,17.31,23.20,16.81,984.10,0.65,-2.37,9.26,3.89,-14.34,-126.61
288,0,0,638251706,-1019114468,17195512,2023,11,28,22,27,32,0,0,0,4.63,3.82,5.00,5.00,5.22,-6.06,17.30,23.19,16.77,983.95,0.80,-2.37,9.14,4.86,-14.49,-127.31
289,0,0,638262514,-1019034475,17195833,2023,11,28,22,27,33,0,0,0,4.61,3.80,5.00,5.00,5.92,-5.38,17.28,23.16,16.78,983.93,0.73,-2.29,9.18,4.39,-13.99,-127.06
290,0,0,638273312,-1018954475,17196154,2023,11,28,22,27,34,0,0,0,4.63,3.82,5.00,5.00,5.10,-6.12,17.29,23.20,16.77,983.92,0.65,-2.45,9.10,3.95,-15.01,-126.87
291,0,0,638284099,-1018874469,17196474,2023,11,28,22,27,35,0,0,0,4.62,3.81,5.00,5.00,5.89,-5.44,17.27,23.20,16.76,983.88,0.76,-2.37,9.14,4.63,-14.49,-127.15
292,0,0,638294875,-1018794458,17196794,2023,11,28,22,27,36,0,0,0,4.63,3.82,5.00,5.00,5.11,-6.31,17.26,23.16,16.73,983.96,0.69,-2.37,9.18,4.15,-14.45,-126.54
293,0,0,638305641,-1018714441,17197114,2023,11,28,22,27,37,0,0,0,4.62,3.80,5.00,5.00,5.76,-5.70,17.24,23.16,16.73,983.98,0.76,-2.41,9.26,4.57,-14.54,-126.94
294,0,0,638316396,-1018634418,17197433,2023,11,28,22,27,38,0,0,0,4.63,3.82,5.00,5.00,5.36,-6.12,17.23,23.16,16.73,983.93,0.61,-2.37,9.06,3.74,-14.63,-126.89
295,0,0,638327140,-1018554389,17197752,2023,11,28,22,27,39,0,0,0,4.62,3.81,5.00,5.00,5.66,-5.46,17.23,23.16,16.69,984.13,0.73,-2.37,9.18,4.38,-14.44,-127.49
296,0,0,638337874,-1018474354,17198071,2023,11,28,22,27,40,0,0,0,4.63,3.82,5.00,5.00,4.96,-5.91,17.22,23.16,16.68,983.89,0.73,-2.41,9.18,4.38,-14.66,-127.03
297,0,0,638348596,-1018394313,17198390,2023,11,28,22,27,41,0,0,0,4.62,3.80,5.00,5.00,5.94,-5.45,17.20,23.16,16.66,983.83,0.69,-2.33,9.26,4.13,-14.11,-126.36
298,0,0,638359308,-1018314267,17198708,2023,11,28,22,27,42,0,0,0,4.60,3.82,5.00,5.00,5.16,-6.23,17.18,23.16,16.64,984.14,0.65,-2.41,9.26,3.89,-14.56,-127.57
299,0,0,638370010,-1018234215,17199025,2023,11,28,22,27,43,0,0,0,4.63,3.81,5.00,5.00,5.88,-6.18,17.17,23.13,16.63,983.95,0.73,-2.33,9.22,4.37,-14.16,-126.88
300,0,0,638380700,-1018154156,17199343,2023,11,28,22,27,44,0,0,0,4.62,3.82,5.00,5.00,5.06,-6.39,17.15,23.12,16.63,983.94,0.73,-2.33,9.26,4.35,-14.11,-126.88
301,0,0,636830254,-1031195327,17153212,2023,11,28,22,27,45,0,0,0,4.63,3.80,5.00,5.00,5.79,-5.56,17.15,23.12,16.61,983.95,0.69,-2.33,9.33,4.09,-14.00,-126.77
302,0,0,636840733,-1031114736,17153524,2023,11,28,22,27,46,0,0,0,4.62,3.82,5.00,5.00,5.17,-6.19,17.13,23.11,16.60,984.04,0.73,-2.29,9.22,4.37,-13.94,-126.59
303,0,0,638229476,-1005253279,17194852,2023,11,28,22,27,47,0,0,0,4.61,3.80,5.00,5.00,5.72,-5.51,17.12,23.09,16.58,983.86,0.73,-2.33,9.22,4.37,-14.16,-127.18
304,0,0,636768091,-1018369119,17151358,2023,11,28,22,27,48,0,0,0,4.64,3.82,5.00,5.00,5.33,-6.23,17.11,23.10,16.56,983.85,0.73,-2.33,9.22,4.37,-14.16,-126.94
305,0,0,636778220,-1018288991,17151660,2023,11,28,22,27,49,0,0,0,4.63,3.80,5.00,5.00,5.72,-5.57,17.11,23.09,16.56,983.95,0.73,-2.41,9.41,4.28,-14.32,-126.93
306,0,0,636788339,-1018208857,17151962,2023,11,28,22,27,50,0,0,0,4.63,3.82,5.00,5.00,5.16,-6.18,17.08,23.07,16.55,983.94,0.76,-2.41,9.26,4.57,-14.54,-127.47
307,0,0,636798447,-1018128718,17152264,2023,11,28,22,27,51,0,0,0,4.62,3.80,5.00,5.00,5.88,-5.62,17.08,23.08,16.55,983.87,0.69,-2.33,9.26,4.13,-14.11,-127.05
308,0,0,636808544,-1018048574,17152565,2023,11,28,22,27,52,0,0,0,4.63,3.82,5.00,5.00,5.03,-6.32,17.06,23.07,16.55,983.90,0.69,-2.37,9.29,4.11,-14.28,-126.64
309,0,0,636818631,-1017968424,17152865,2023,11,28,22,27,53,0,0,0,4.61,3.81,5.00,5.00,5.86,-5.82,17.06,23.07,16.52,984.06,0.76,-2.33,9.45,4.49,-13.83,-126.63
310,0,0,636615382,-1004927807,17146804,2023,11,28,22,27,54,0,0,0,4.63,3.82,5.00,5.00,5.32,-6.38,17.04,23.05,16.50,984.01,0.88,-2.37,9.29,5.24,-14.25,-126.82
311,0,0,636838771,-1017808108,17153466,2023,11,28,22,27,55,0,0,0,4.62,3.81,5.00,5.00,5.50,-5.80,17.02,23.02,16.49,984.07,0.80,-2.33,9.29,4.79,-14.04,-127.28
312,0,0,635206104,-1031168630,17104685,2023,11,28,22,27,56,0,0,0,4.62,3.82,5.00,5.00,5.06,-6.36,17.01,23.05,16.45,983.78,0.73,-2.45,9.22,4.36,-14.83,-126.53
313,0,0,635215942,-1031087902,17104979,2023,11,28,22,27,57,0,0,0,4.62,3.80,5.00,5.00,5.59,-6.07,17.00,23.03,16.47,983.94,0.69,-2.37,9.22,4.14,-14.39,-126.98
314,0,0,635225769,-1031007170,17105274,2023,11,28,22,27,58,0,0,0,4.63,3.82,5.00,5.00,5.19,-6.37,17.00,23.02,16.45,983.89,0.69,-2.29,9.29,4.11,-13.83,-126.55
315,0,0,633412286,-1044606755,17050849,2023,11,28,22,27,59,0,0,0,4.61,3.80,5.00,5.00,5.66,-5.83,16.98,23.05,16.46,983.78,0.73,-2.29,9.18,4.39,-13.99,-126.68
316,0,0,633421892,-1044525426,17051138,2023,11,28,22,28,0,0,0,0,4.63,3.82,5.00,5.00,4.01,-6.50,16.98,22.98,16.43,984.05,0.73,-2.41,9.22,4.36,-14.61,-126.85
317,0,0,633431487,-1044444092,17051426,2023,11,28,22,28,1,0,0,0,4.63,3.81,5.00,5.00,5.54,-5.72,16.95,23.01,16.40,984.02,0.73,-2.49,9.22,4.35,-15.05,-126.48
318,0,0,633441071,-1044362752,17051715,2023,11,28,22,28,2,0,0,0,4.63,3.82,5.00,5.00,5.05,-6.47,16.95,22.98,16.40,984.00,0.57,-2.41,9.52,3.34,-14.17,-126.69
319,0,0,631435537,-1058191121,16991234,2023,11,28,22,28,3,0,0,0,4.59,3.80,5.00,5.00,5.64,-5.95,16.94,22.98,16.37,983.96,0.69,-2.33,9.22,4.14,-14.17,-126.99
320,0,0,631444908,-1058109156,16991517,2023,11,28,22,28,4,0,0,0,4.63,3.82,5.00,5.00,5.08,-6.46,16.92,22.95,16.38,983.79,0.73,-2.41,9.18,4.38,-14.66,-127.01
321,0,0,631454267,-1058027186,16991800,2023,11,28,22,28,5,0,0,0,4.62,3.81,5.00,5.00,5.61,-6.08,16.92,22.95,16.38,983.90,0.80,-2.37,9.18,4.84,-14.43,-127.46
322,0,0,629245484,-1072073862,16924836,2023,11,28,22,28,6,0,0,0,4.63,3.82,5.00,5.00,3.79,-6.97,16.90,22.95,16.35,983.91,0.76,-2.33,9.26,4.58,-14.10,-127.36
323,0,0,629254639,-1071991238,16925114,2023,11,28,22,28,7,0,0,0,4.62,3.80,5.00,5.00,5.49,-5.90,16.89,22.96,16.34,983.92,0.76,-2.37,9.03,4.69,-14.67,-126.82
324,0,0,629263782,-1071908609,16925392,2023,11,28,22,28,8,0,0,0,4.63,3.82,5.00,5.00,5.10,-6.43,16.87,22.91,16.30,983.83,0.69,-2.33,9.14,4.17,-14.28,-126.79
325,0,0,626839995,-1086161117,16851487,2023,11,28,22,28,9,0,0,0,4.57,3.81,5.00,5.00,5.95,-5.96,16.87,22.94,16.34,983.92,0.65,-2.37,9.18,3.92,-14.45,-126.81
326,0,0,626848942,-1086077807,16851760,2023,11,28,22,28,10,0,0,0,4.64,3.82,5.00,5.00,4.91,-6.67,16.86,22.92,16.30,983.90,0.65,-2.41,9.22,3.90,-14.62,-127.33
327,0,0,626857878,-1085994493,16852034,2023,11,28,22,28,11,0,0,0,4.62,3.80,5.00,5.00,5.33,-6.37,16.85,22.89,16.30,983.93,0.80,-2.41,9.33,4.76,-14.43,-126.67
328,0,0,626866802,-1085911173,16852306,2023,11,28,22,28,12,0,0,0,4.63,3.82,5.00,5.00,4.99,-6.60,16.83,22.91,16.30,983.91,0.69,-2.33,9.22,4.14,-14.17,-126.68
329,0,0,624215758,-1100354943,16770972,2023,11,28,22,28,13,0,0,0,4.63,3.81,5.00,5.00,5.79,-6.46,16.82,22.89,16.27,983.94,0.76,-2.41,8.91,4.74,-15.08,-127.47
330,0,0,624224496,-1100270917,16771241,2023,11,28,22,28,14,0,0,0,4.63,3.82,5.00,5.00,4.61,-6.53,16.81,22.89,16.23,983.97,0.73,-2.33,9.14,4.40,-14.27,-126.79
331,0,0,624233221,-1100186886,16771510,2023,11,28,22,28,15,0,0,0,4.63,3.81,5.00,5.00,5.52,-5.93,16.79,22.88,16.24,983.96,0.65,-2.33,9.22,3.91,-14.17,-126.21
332,0,0,621342740,-1114807371,16682240,2023,11,28,22,28,16,0,0,0,4.63,3.82,5.00,5.00,4.96,-6.74,16.80,22.89,16.22,983.93,0.65,-2.29,9.26,3.90,-13.89,-126.89
333,0,0,621351289,-1114722609,16682505,2023,11,28,22,28,17,0,0,0,4.60,3.80,5.00,5.00,5.43,-5.96,16.78,22.84,16.23,983.99,0.73,-2.33,9.22,4.37,-14.16,-127.18
334,0,0,621359827,-1114637843,16682770,2023,11,28,22,28,18,0,0,0,4.63,3.82,5.00,5.00,4.94,-6.64,16.76,22.84,16.20,984.01,0.76,-2.33,9.33,4.55,-13.99,-126.96
335,0,0,620878278,-1126045286,16667839,2023,11,28,22,28,19,0,0,0,4.61,3.81,5.00,5.00,5.50,-6.15,16.74,22.84,16.19,983.92,0.76,-2.37,9.29,4.56,-14.27,-126.74
336,0,0,621376867,-1114468298,16683298,2023,11,28,22,28,20,0,0,0,4.62,3.82,5.00,5.00,4.88,-6.78,16.75,22.80,16.16,984.12,0.80,-2.33,9.26,4.81,-14.10,-127.11
337,0,0,620896222,-1125874984,16668396,2023,11,28,22,28,21,0,0,0,4.61,3.81,5.00,5.00,5.45,-6.23,16.74,22.82,16.16,984.00,0.73,-2.37,9.22,4.37,-14.38,-127.01
338,0,0,617681581,-1140417774,16568296,2023,11,28,22,28,22,0,0,0,4.63,3.82,5.00,5.00,4.91,-6.72,16.71,22.77,16.15,983.98,0.69,-2.37,9.26,4.12,-14.33,-127.23
339,0,0,617690403,-1140331896,16568571,2023,11,28,22,28,23,0,0,0,4.61,3.81,5.00,5.00,5.38,-6.25,16.71,22.75,16.13,984.08,0.73,-2.37,9.26,4.35,-14.33,-127.36
340,0,0,620923049,-1125619496,16669228,2023,11,28,22,28,24,0,0,0,4.64,3.82,5.00,5.00,4.88,-6.77,16.69,22.82,16.13,983.92,0.73,-2.41,9.10,4.41,-14.78,-126.52
341,0,0,623909280,-1111051118,16761536,2023,11,28,22,28,25,0,0,0,4.63,3.80,5.00,5.00,5.41,-6.11,16.67,22.82,16.11,983.95,0.76,-2.33,9.22,4.60,-14.16,-127.58
342,0,0,623918319,-1110966636,16761814,2023,11,28,22,28,26,0,0,0,4.63,3.82,5.00,5.00,4.94,-6.74,16.66,22.80,16.09,983.93,0.73,-2.33,9.26,4.35,-14.11,-126.78
343,0,0,623927346,-1110882150,16762092,2023,11,28,22,28,27,0,0,0,4.62,3.80,5.00,5.00,5.24,-6.81,16.65,22.76,16.07,984.02,0.76,-2.29,9.22,4.60,-13.93,-126.82
344,0,0,624345593,-1099094073,16774968,2023,11,28,22,28,28,0,0,0,4.63,3.82,5.00,5.00,4.82,-6.75,16.64,22.73,16.08,984.04,0.73,-2.33,9.10,4.42,-14.33,-126.66
345,0,0,624354155,-1099009980,16775231,2023,11,28,22,28,29,0,0,0,4.62,3.81,5.00,5.00,5.48,-6.32,16.62,22.73,16.06,983.93,0.76,-2.29,9.22,4.60,-13.93,-127.37
346,0,0,627025468,-1084410631,16857158,2023,11,28,22,28,30,0,0,0,4.63,3.82,5.00,5.00,4.73,-7.00,16.63,22.70,16.05,983.86,0.73,-2.33,9.22,4.37,-14.16,-127.19
347,0,0,626706714,-1096223735,16847410,2023,11,28,22,28,31,0,0,0,4.62,3.80,5.00,5.00,5.57,-6.63,16.62,22.69,16.03,983.91,0.76,-2.33,9.14,4.64,-14.27,-126.31
348,0,0,626715827,-1096139899,16847689,2023,11,28,22,28,32,0,0,0,4.64,3.82,5.00,5.00,4.86,-7.09,16.59,22.73,16.01,984.03,0.69,-2.37,9.22,4.14,-14.39,-126.97
349,0,0,625406820,-1085822884,16807579,2023,11,28,22,28,33,0,0,0,4.63,3.81,5.00,5.00,5.53,-5.97,16.58,22.71,15.98,984.23,0.73,-2.37,9.18,4.38,-14.44,-127.68
350,0,0,629497528,-1069758595,16932496,2023,11,28,22,28,34,0,0,0,4.63,3.82,5.00,5.00,4.62,-6.90,16.57,22.68,15.96,984.00,0.69,-2.33,9.18,4.16,-14.22,-127.11
351,0,0,631729862,-1055565825,17000129,2023,11,28,22,28,35,0,0,0,4.63,3.80,5.00,5.00,5.17,-6.33,16.55,22.70,15.96,983.87,0.69,-2.37,9.22,4.14,-14.39,-127.18
352,0,0,631738875,-1055483706,17000401,2023,11,28,22,28,36,0,0,0,4.63,3.82,5.00,5.00,4.66,-6.80,16.54,22.68,15.95,984.02,0.76,-2.33,9.22,4.60,-14.16,-127.13
353,0,0,631747877,-1055401581,17000673,2023,11,28,22,28,37,0,0,0,4.62,3.81,5.00,5.00,5.20,-6.30,16.53,22.68,15.92,983.94,0.73,-2.37,9.26,4.35,-14.33,-126.74
354,0,0,631756867,-1055319452,17000945,2023,11,28,22,28,38,0,0,0,4.63,3.82,5.00,5.00,4.83,-6.95,16.51,22.68,15.95,983.98,0.73,-2.33,9.18,4.39,-14.22,-127.37
355,0,0,633787934,-1041349690,17062143,2023,11,28,22,28,39,0,0,0,4.61,3.81,5.00,5.00,5.22,-6.42,16.50,22.65,15.91,983.99,0.73,-2.41,9.29,4.33,-14.49,-128.13
356,0,0,632161466,-1043902774,17013161,2023,11,28,22,28,40,0,0,0,4.63,3.82,5.00,5.00,4.71,-7.44,16.50,22.62,15.93,983.92,0.73,-2.41,9.22,4.36,-14.61,-127.51
357,0,0,633806253,-1041186631,17062694,2023,11,28,22,28,41,0,0,0,4.61,3.81,5.00,5.00,5.24,-6.21,16.48,22.64,15.90,983.98,0.73,-2.37,9.06,4.43,-14.62,-127.46
358,0,0,635647369,-1027449858,17117890,2023,11,28,22,28,42,0,0,0,4.63,3.82,5.00,5.00,4.54,-7.06,16.47,22.63,15.88,983.97,0.69,-2.33,9.18,4.16,-14.22,-126.88
359,0,0,635656705,-1027368896,17118169,2023,11,28,22,28,43,0,0,0,4.62,3.80,5.00,5.00,5.40,-6.31,16.46,22.60,15.88,984.07,0.69,-2.33,8.91,4.27,-14.63,-127.23
360,0,0,635666031,-1027287930,17118448,2023,11,28,22,28,44,0,0,0,4.62,3.82,5.00,5.00,4.74,-6.81,16.44,22.55,15.86,984.00,0.73,-2.41,9.29,4.33,-14.49,-127.77
361,0,0,635675346,-1027206959,17118726,2023,11,28,22,28,45,0,0,0,4.61,3.80,5.00,5.00,5.22,-6.22,16.43,22.57,15.82,983.95,0.76,-2.37,9.26,4.58,-14.32,-127.33
362,0,0,637337814,-1013712924,17168334,2023,11,28,22,28,46,0,0,0,4.63,3.82,5.00,5.00,4.56,-7.00,16.43,22.57,15.85,984.03,0.65,-2.33,9.18,3.93,-14.23,-126.76
363,0,0,635693943,-1027045002,17119282,2023,11,28,22,28,47,0,0,0,4.59,3.81,5.00,5.00,5.30,-6.43,16.40,22.59,15.81,983.87,0.73,-2.33,9.37,4.30,-13.94,-127.18
364,0,0,637469201,-1026107230,17172246,2023,11,28,22,28,48,0,0,0,4.63,3.82,5.00,5.00,4.57,-7.19,16.40,22.55,15.82,984.06,0.69,-2.33,9.22,4.14,-14.17,-126.93
365,0,0,637483987,-1038208877,17172686,2023,11,28,22,28,49,0,0,0,4.61,3.81,5.00,5.00,5.21,-6.53,16.39,22.54,15.80,983.85,0.80,-2.37,9.18,4.84,-14.43,-126.88
366,0,0,637488779,-1025945349,17172828,2023,11,28,22,28,50,0,0,0,4.63,3.82,5.00,5.00,4.68,-7.12,16.38,22.56,15.77,983.93,0.73,-2.37,9.06,4.43,-14.62,-127.60
367,0,0,640703273,-1009473905,17268090,2023,11,28,22,28,51,0,0,0,4.62,3.81,5.00,5.00,5.05,-6.63,16.36,22.49,15.73,983.88,0.69,-2.29,9.22,4.15,-13.94,-126.67
368,0,0,638880175,-1000068197,17214163,2023,11,28,22,28,52,0,0,0,4.63,3.82,5.00,5.00,4.67,-7.27,16.34,22.48,15.73,983.85,0.76,-2.29,9.22,4.60,-13.93,-126.86
369,0,0,638889835,-999988251,17214450,2023,11,28,22,28,53,0,0,0,4.62,3.81,5.00,5.00,5.15,-6.53,16.34,22.50,15.74,984.09,0.73,-2.37,9.26,4.35,-14.33,-127.09
370,0,0,640521866,-996255400,17262736,2023,11,28,22,28,54,0,0,0,4.63,3.82,5.00,5.00,4.41,-7.27,16.32,22.48,15.74,984.02,0.61,-2.33,9.06,3.74,-14.40,-127.15
371,0,0,640191606,-982821517,17252982,2023,11,28,22,28,55,0,0,0,4.62,3.80,5.00,5.00,5.07,-6.38,16.30,22.46,15.68,984.02,0.76,-2.33,9.22,4.60,-14.16,-127.10
372,0,0,640542018,-996095709,17263331,2023,11,28,22,28,56,0,0,0,4.57,3.82,5.00,5.00,4.78,-7.16,16.30,22.45,15.70,983.70,0.76,-2.33,9.26,4.58,-14.10,-127.20
373,0,0,640211173,-982662887,17253560,2023,11,28,22,28,57,0,0,0,4.62,3.81,5.00,5.00,5.10,-6.56,16.28,22.44,15.66,983.97,0.73,-2.37,9.18,4.38,-14.44,-127.01
374,0,0,640562127,-995935996,17263924,2023,11,28,22,28,58,0,0,0,4.63,3.82,5.00,5.00,4.52,-7.20,16.27,22.45,15.65,983.92,0.76,-2.33,9.03,4.69,-14.44,-127.41
375,0,0,640572166,-995856132,17264221,2023,11,28,22,28,59,0,0,0,4.62,3.81,5.00,5.00,5.06,-6.77,16.26,22.41,15.63,983.93,0.69,-2.37,9.22,4.14,-14.39,-127.17
376,0,0,640240446,-982424903,17254425,2023,11,28,22,29,0,0,0,0,4.63,3.82,5.00,5.00,4.51,-7.55,16.25,22.41,15.64,984.07,0.69,-2.37,9.03,4.22,-14.68,-127.05
377,0,0,640250182,-982345565,17254713,2023,11,28,22,29,1,0,0,0,4.62,3.81,5.00,5.00,5.27,-6.76,16.25,22.47,15.64,983.87,0.69,-2.33,9.26,4.13,-14.11,-127.17
378,0,0,640259908,-982266221,17255000,2023,11,28,22,29,2,0,0,0,4.63,3.82,5.00,5.00,4.59,-7.29,16.22,22.38,15.62,983.88,0.76,-2.33,9.26,4.58,-14.10,-127.18
379,0,0,640269624,-982186872,17255287,2023,11,28,22,29,3,0,0,0,4.62,3.81,5.00,5.00,5.10,-7.08,16.22,22.38,15.61,983.90,0.65,-2.33,9.26,3.90,-14.11,-127.19
380,0,0,640279329,-982107518,17255574,2023,11,28,22,29,4,0,0,0,4.62,3.82,5.00,5.00,4.18,-7.37,16.22,22.42,15.58,983.92,0.69,-2.37,9.22,4.14,-14.39,-127.03
381,0,0,640289023,-982028158,17255860,2023,11,28,22,29,5,0,0,0,4.62,3.81,5.00,5.00,4.98,-6.71,16.18,22.38,15.58,983.90,0.76,-2.37,9.22,4.60,-14.38,-127.23
382,0,0,641958045,-977734847,17305051,2023,11,28,22,29,6,0,0,0,4.62,3.82,5.00,5.00,3.63,-8.11,16.19,22.42,15.55,984.00,0.69,-2.33,9.22,4.14,-14.17,-127.29
383,0,0,640652094,-995217015,17266580,2023,11,28,22,29,7,0,0,0,4.62,3.81,5.00,5.00,4.92,-6.88,16.17,22.36,15.55,984.10,0.73,-2.29,9.22,4.37,-13.94,-127.21
384,0,0,640318044,-981790049,17256717,2023,11,28,22,29,8,0,0,0,4.62,3.82,5.00,5.00,4.49,-7.23,16.16,22.38,15.54,983.91,0.76,-2.29,9.18,4.62,-13.99,-126.83
385,0,0,640327696,-981710668,17257002,2023,11,28,22,29,9,0,0,0,4.57,3.80,5.00,5.00,5.03,-6.85,16.14,22.38,15.50,983.91,0.65,-2.29,9.37,3.86,-13.73,-126.88
386,0,0,640681893,-994977257,17267459,2023,11,28,22,29,10,0,0,0,4.62,3.82,5.00,5.00,4.69,-8.74,16.13,22.35,15.52,983.88,0.76,-2.37,9.18,4.61,-14.44,-127.44
387,0,0,642008635,-977338438,17306539,2023,11,28,22,29,11,0,0,0,4.62,3.81,5.00,5.00,4.78,-6.89,16.13,22.37,15.51,983.88,0.69,-2.33,9.41,4.06,-13.89,-126.29
388,0,0,642381631,-990988380,17317500,2023,11,28,22,29,12,0,0,0,4.62,3.82,5.00,5.00,4.57,-9.40,16.10,22.34,15.46,984.08,0.73,-2.37,9.22,4.37,-14.38,-127.21
389,0,0,640711596,-994737449,17268336,2023,11,28,22,29,13,0,0,0,4.63,3.81,5.00,5.00,4.96,-6.80,16.11,22.29,15.48,983.85,0.76,-2.37,9.10,4.65,-14.55,-127.26
390,0,0,640721475,-994657502,17268627,2023,11,28,22,29,14,0,0,0,4.63,3.82,5.00,5.00,4.43,-8.17,16.08,22.35,15.45,983.86,0.73,-2.37,9.26,4.35,-14.33,-127.23
391,0,0,640949892,-1007544539,17275364,2023,11,28,22,29,15,0,0,0,4.59,3.80,5.00,5.00,4.96,-7.02,16.08,22.31,15.45,983.84,0.69,-2.33,9.26,4.13,-14.11,-126.95
392,0,0,640960034,-1007464078,17275664,2023,11,28,22,29,16,0,0,0,4.62,3.82,5.00,5.00,4.51,-7.56,16.06,22.33,15.43,983.96,0.73,-2.33,9.22,4.37,-14.16,-126.77
393,0,0,640970166,-1007383611,17275962,2023,11,28,22,29,17,0,0,0,4.62,3.80,5.00,5.00,4.96,-6.98,16.05,22.27,15.41,983.99,0.73,-2.18,9.33,4.34,-13.11,-127.26
394,0,0,640980286,-1007303138,17276261,2023,11,28,22,29,18,0,0,0,4.62,3.82,5.00,5.00,4.26,-7.67,16.03,22.28,15.41,983.96,0.80,-2.33,9.33,4.77,-13.99,-127.55
395,0,0,640990396,-1007222659,17276559,2023,11,28,22,29,19,0,0,0,4.63,3.81,5.00,5.00,4.99,-6.93,16.02,22.27,15.39,984.00,0.76,-2.37,9.22,4.60,-14.38,-127.15
396,0,0,639319319,-1007606894,17227177,2023,11,28,22,29,20,0,0,0,4.62,3.82,5.00,5.00,4.42,-7.55,16.02,22.27,15.38,983.95,0.80,-2.29,9.26,4.81,-13.87,-127.44
397,0,0,639328903,-1007526409,17227461,2023,11,28,22,29,21,0,0,0,4.61,3.81,5.00,5.00,5.09,-6.98,16.00,22.27,15.34,983.97,0.73,-2.33,9.18,4.39,-14.22,-127.60
398,0,0,639338476,-1007445919,17227745,2023,11,28,22,29,22,0,0,0,4.63,3.82,5.00,5.00,4.44,-7.51,15.99,22.23,15.35,983.83,0.76,-2.33,9.14,4.64,-14.27,-127.49
399,0,0,641030730,-1006900689,17277748,2023,11,28,22,29,23,0,0,0,4.61,3.81,5.00,5.00,4.82,-6.96,15.98,22.23,15.32,983.92,0.84,-2.37,9.22,5.05,-14.37,-127.23
400,0,0,639485587,-1020172883,17232101,2023,11,28,22,29,24,0,0,0,4.62,3.82,5.00,5.00,4.14,-7.53,15.96,22.23,15.32,984.00,0.76,-2.37,9.29,4.56,-14.27,-127.40
401,0,0,639495431,-1020091875,17232392,2023,11,28,22,29,25,0,0,0,4.63,3.81,5.00,5.00,2.94,-7.09,15.93,22.23,15.31,983.93,0.76,-2.33,9.26,4.58,-14.10,-127.12
402,0,0,639505264,-1020010861,17232683,2023,11,28,22,29,26,0,0,0,4.62,3.82,5.00,5.00,4.34,-7.74,15.93,22.23,15.30,983.91,0.69,-2.37,9.52,4.01,-13.95,-126.38
403,0,0,639530822,-1032429156,17233440,2023,11,28,22,29,27,0,0,0,4.61,3.81,5.00,5.00,2.03,-7.26,15.92,22.20,15.29,983.92,0.73,-2.33,9.26,4.35,-14.11,-127.29
404,0,0,639524898,-1019848818,17233264,2023,11,28,22,29,28,0,0,0,4.60,3.82,5.00,5.00,4.38,-7.65,15.91,22.21,15.28,983.97,0.69,-2.41,9.22,4.13,-14.61,-127.02
405,0,0,639534698,-1019767788,17233555,2023,11,28,22,29,29,0,0,0,4.62,3.81,5.00,5.00,3.62,-7.55,15.89,22.20,15.24,984.10,0.69,-2.33,9.22,4.14,-14.17,-126.56
406,0,0,639544488,-1019686752,17233844,2023,11,28,22,29,30,0,0,0,4.62,3.82,5.00,5.00,4.38,-7.87,15.89,22.20,15.26,984.00,0.69,-2.37,9.22,4.14,-14.39,-126.93
407,0,0,639554267,-1019605711,17234134,2023,11,28,22,29,31,0,0,0,4.62,3.81,5.00,5.00,3.50,-7.65,15.88,22.16,15.24,983.98,0.76,-2.37,9.22,4.60,-14.38,-126.82
408,0,0,639581294,-1032021650,17234934,2023,11,28,22,29,32,0,0,0,4.57,3.82,5.00,5.00,4.29,-7.79,15.86,22.13,15.22,984.02,0.65,-2.33,9.22,3.91,-14.17,-126.26
409,0,0,639573793,-1019443613,17234712,2023,11,28,22,29,33,0,0,0,4.61,3.81,5.00,5.00,4.96,-7.23,15.85,22.13,15.20,984.11,0.69,-2.33,9.06,4.21,-14.39,-127.70
410,0,0,638320531,-1008625421,17197556,2023,11,28,22,29,34,0,0,0,4.63,3.82,5.00,5.00,4.08,-7.60,15.83,22.12,15.20,983.97,0.73,-2.33,9.22,4.37,-14.16,-127.22
